name,category,address_full,website,phone_number,rating,reviews_count,hours,longitude,latitude,url
Muyen Coffee & Roastery Tebet,Kafe,"Jl. Tebet Raya No.76, RT.3/RW.3, Tebet Tim., Kec. Tebet, Kota Jakarta Selatan, Daerah Khusus Ibukota Jakarta 12820",Unknown,0819-1301-0220,"4,8",Unknown,"Kamis,07.00 hingga 23.00",106.8563359,-6.2280665,https://www.google.com/maps/place/Muyen+Coffee+%26+Roastery+Tebet/data=!4m7!3m6!1s0x2e69f3dc7107cfb3:0x3a8626931545b4c2!8m2!3d-6.2280665!4d106.8563359!16s%2Fg%2F11fb2j311p!19sChIJs88HcdzzaS4RwrRFFZMmhjo?authuser=0&hl=id&rclk=1
Kopi Nako Tebet,Kedai Kopi,"Jl. Tebet Barat Dalam X Parkiran No.10, RT.10/RW.5, Tebet Bar., Kec. Tebet, Kota Jakarta Selatan, Daerah Khusus Ibukota Jakarta 12810",Unknown,Unknown,"4,6",Unknown,"Kamis,08.00 hingga 23.00",106.8525089,-6.2419937,https://www.google.com/maps/place/Kopi+Nako+Tebet/data=!4m7!3m6!1s0x2e69f36eba3221f3:0xdaadf7dde0f8280e!8m2!3d-6.2419937!4d106.8525089!16s%2Fg%2F11jkzpr785!19sChIJ8yEyum7zaS4RDij44N33rdo?authuser=0&hl=id&rclk=1
ORKA Coffee - Tebet,Kedai Kopi,"Jl. Tebet Barat Dalam Raya No.60, RT.5/RW.3, Tebet Bar., Kec. Tebet, Kota Jakarta Selatan, Daerah Khusus Ibukota Jakarta 12810",Unknown,0812-8025-6060,"4,6",Unknown,"Kamis,08.00 hingga 22.00",106.8467555,-6.2365625,https://www.google.com/maps/place/ORKA+Coffee+-+Tebet/data=!4m7!3m6!1s0x2e69f3bb561ebaff:0x83e06b20c1d83cf7!8m2!3d-6.2365625!4d106.8467555!16s%2Fg%2F11lgkthlj0!19sChIJ_7oeVrvzaS4R9zzYwSBr4IM?authuser=0&hl=id&rclk=1
"LEGE Coffee & Toastie, Tebet",Kedai Kopi,"Jl. Tebet Utara I No.8, RT.5/RW.2, Tebet Tim., Kec. Tebet, Kota Jakarta Selatan, Daerah Khusus Ibukota Jakarta 12820",Unknown,(021) 22908128,"4,8",Unknown,"Kamis,07.00 hingga 22.00",106.8527977,-6.2262174,"https://www.google.com/maps/place/LEGE+Coffee+%26+Toastie,+Tebet/data=!4m7!3m6!1s0x2e69f36a4b7928b7:0x3e9d213cd7567299!8m2!3d-6.2262174!4d106.8527977!16s%2Fg%2F11swf6s5bp!19sChIJtyh5S2rzaS4RmXJW1zwhnT4?authuser=0&hl=id&rclk=1"
Wood & Brew Café,Kedai Kopi,"Jl. Tebet Timur Raya No.8D, RT.8/RW.10, Tebet Tim., Kec. Tebet, Kota Jakarta Selatan, Daerah Khusus Ibukota Jakarta 12820",Unknown,0851-2192-1231,"4,8",Unknown,"Kamis,09.00 hingga 22.00",106.8525059,-6.2309364,https://www.google.com/maps/place/Wood+%26+Brew+Caf%C3%A9/data=!4m7!3m6!1s0x2e69f31cf132ca65:0xa5805cff6786a78f!8m2!3d-6.2309364!4d106.8525059!16s%2Fg%2F11vsf8yv39!19sChIJZcoy8RzzaS4Rj6eGZ_9cgKU?authuser=0&hl=id&rclk=1
Loffee Coffee & Eatery,Restoran,"13, Jl. Tebet Timur Dalam Raya No.44b, RT.1/RW.9, Tebet Tim., Kec. Tebet, Kota Jakarta Selatan, Daerah Khusus Ibukota Jakarta 12820",Unknown,0897-9311-696,"4,8",Unknown,Unknown,106.8563903,-6.2396851,https://www.google.com/maps/place/Loffee+Coffee+%26+Eatery/data=!4m7!3m6!1s0x2e69f3247a06f5fb:0x3687dfc5c814ee6d!8m2!3d-6.2396851!4d106.8563903!16s%2Fg%2F11s4wdyyw6!19sChIJ-_UGeiTzaS4Rbe4UyMXfhzY?authuser=0&hl=id&rclk=1
Sleepless Owls,Kedai Kopi,"Jl. Tebet Utara Dalam No.27 7, RT.10/RW.2, Tebet Tim., Kec. Tebet, Kota Jakarta Selatan, Daerah Khusus Ibukota Jakarta 12820",Unknown,(021) 22837396,"4,3",Unknown,"Kamis,08.00 hingga 00.00",106.854612,-6.2259828,https://www.google.com/maps/place/Sleepless+Owls/data=!4m7!3m6!1s0x2e69f38535f0b507:0x1ae76a51d8f772b8!8m2!3d-6.2259828!4d106.854612!16s%2Fg%2F11cmcbwxj5!19sChIJB7XwNYXzaS4RuHL32FFq5xo?authuser=0&hl=id&rclk=1
Kopi Calf To Go Tebet,Kedai Kopi,"Jl. Tebet Raya No.55, RT.9/RW.1, Tebet Tim., Kec. Tebet, Kota Jakarta Selatan, Daerah Khusus Ibukota Jakarta 12820",Unknown,0852-8571-1031,"4,7",Unknown,"Kamis,08.00 hingga 00.00",106.8552938,-6.2282969,https://www.google.com/maps/place/Kopi+Calf+To+Go+Tebet/data=!4m7!3m6!1s0x2e69f33e12735d95:0x6160b7d04dd2cc30!8m2!3d-6.2282969!4d106.8552938!16s%2Fg%2F11mybz68hq!19sChIJlV1zEj7zaS4RMMzSTdC3YGE?authuser=0&hl=id&rclk=1
Coffee & Thyme Tebet,Kedai Kopi,"Jl. Tebet Timur Dalam Raya No.53 C, RT.8/RW.11, Tebet Tim., Kec. Tebet, Kota Jakarta Selatan, Daerah Khusus Ibukota Jakarta 12820",Unknown,0813-8910-1302,"4,7",Unknown,"Kamis,10.00 hingga 23.30",106.8570217,-6.233352,https://www.google.com/maps/place/Coffee+%26+Thyme+Tebet/data=!4m7!3m6!1s0x2e69f3663259d9df:0xf6150d0915bd2835!8m2!3d-6.233352!4d106.8570217!16s%2Fg%2F11t29b6sjx!19sChIJ39lZMmbzaS4RNSi9FQkNFfY?authuser=0&hl=id&rclk=1
Ribbon Coffee & Eatery,Kedai Kopi,"Jl. Tebet Bar. No.18, RT.10/RW.5, Tebet Bar., Kec. Tebet, Kota Jakarta Selatan, Daerah Khusus Ibukota Jakarta 12810",Unknown,0811-888-192,"4,5",Unknown,"Kamis,09.00 hingga 23.00",106.8505207,-6.2332308,https://www.google.com/maps/place/Ribbon+Coffee+%26+Eatery/data=!4m7!3m6!1s0x2e69f30078f16e81:0x3530361f5058f2aa!8m2!3d-6.2332308!4d106.8505207!16s%2Fg%2F11vs0y06sl!19sChIJgW7xeADzaS4RqvJYUB82MDU?authuser=0&hl=id&rclk=1
Flash Coffee - Bukit Duri Tebet,Kedai Kopi,"Jl. KH Abdullah Syafei No.17 15, RT.13/RW.5, Bukit Duri, Kec. Tebet, Kota Jakarta Selatan, Daerah Khusus Ibukota Jakarta 12840",Unknown,0811-8139-8524,"4,8",Unknown,"Kamis,06.00 hingga 23.00",106.8545139,-6.224729,https://www.google.com/maps/place/Flash+Coffee+-+Bukit+Duri+Tebet/data=!4m7!3m6!1s0x2e69f347642bafa1:0x2f7a2b9791ac6e81!8m2!3d-6.224729!4d106.8545139!16s%2Fg%2F11yshh5v8c!19sChIJoa8rZEfzaS4RgW6skZcrei8?authuser=0&hl=id&rclk=1
Journey Coffee,Kedai Kopi,"Jl. KH Abdullah Syafei No.78 11, RT.11/RW.5, Bukit Duri, Kec. Tebet, Kota Jakarta Selatan, Daerah Khusus Ibukota Jakarta 12810",Unknown,Unknown,"4,2",Unknown,"Kamis,10.00 hingga 22.30",106.8520626,-6.224022,https://www.google.com/maps/place/Journey+Coffee/data=!4m7!3m6!1s0x2e69f38f089099b5:0xc2c5d706e7f95f36!8m2!3d-6.224022!4d106.8520626!16s%2Fg%2F11b6hqj73t!19sChIJtZmQCI_zaS4RNl_55wbXxcI?authuser=0&hl=id&rclk=1
Atmè Coffee -Tebet,Kedai Kopi,"Jl. KH Abdullah Syafei No.59A 5, RT.5/RW.2, Manggarai Sel., Kec. Tebet, jakarta, Daerah Khusus Ibukota Jakarta 12860",Unknown,0881-0247-81447,"4,6",Unknown,"Kamis,08.00 hingga 23.00",106.8506077,-6.2236119,https://www.google.com/maps/place/Atm%C3%A8+Coffee+-Tebet/data=!4m7!3m6!1s0x2e69f352250336d5:0x6be7be4e7cce290e!8m2!3d-6.2236119!4d106.8506077!16s%2Fg%2F11y42l6hs_!19sChIJ1TYDJVLzaS4RDinOfE6-52s?authuser=0&hl=id&rclk=1
Dua Coffee @Tebet,Kafe,"Jl. Tebet Timur Raya No.9, RT.1/RW.7, Tebet Tim., Kec. Tebet, Kota Jakarta Selatan, Daerah Khusus Ibukota Jakarta 12820",Unknown,0877-7400-9694,"4,4",Unknown,"Kamis,07.00 hingga 22.00",106.8536683,-6.2372811,https://www.google.com/maps/place/Dua+Coffee+@Tebet/data=!4m7!3m6!1s0x2e69f3fbedb0c407:0x3c8bd315f3918d91!8m2!3d-6.2372811!4d106.8536683!16s%2Fg%2F11nz3m5w8y!19sChIJB8Sw7fvzaS4RkY2R8xXTizw?authuser=0&hl=id&rclk=1
Pouter Coffee Tebet,Kedai Kopi,"Jl. Tebet Timur Dalam Raya No.107a, RT.5/RW.6, Tebet Tim., Kec. Tebet, Kota Jakarta Selatan, Daerah Khusus Ibukota Jakarta 12820",Unknown,0821-9000-8319,"4,8",Unknown,"Kamis,07.30 hingga 21.30",106.8570549,-6.2369989,https://www.google.com/maps/place/Pouter+Coffee+Tebet/data=!4m7!3m6!1s0x2e69f3f480a691f1:0xf927f4578a372a13!8m2!3d-6.2369989!4d106.8570549!16s%2Fg%2F11sty7zyvs!19sChIJ8ZGmgPTzaS4REyo3ilf0J_k?authuser=0&hl=id&rclk=1
KOPIMANA27,Kedai Kopi,"Jl. Prof. DR. Soepomo No.45J, RT.14/RW.6, Tebet Bar., Kec. Tebet, Kota Jakarta Selatan, Daerah Khusus Ibukota Jakarta 12810",Unknown,0877-4554-1210,"4,6",Unknown,"Kamis,08.00 hingga 23.00",106.8456087,-6.2394533,https://www.google.com/maps/place/KOPIMANA27/data=!4m7!3m6!1s0x2e69f3be8251ae3d:0xec4f1f4429a3d8f6!8m2!3d-6.2394533!4d106.8456087!16s%2Fg%2F11bwkhmds0!19sChIJPa5Rgr7zaS4R9tijKUQfT-w?authuser=0&hl=id&rclk=1
House of Tebet 145,,"1, Jl. Tebet Raya No.145E, RT.1/RW.3, Tebet Tim., Kec. Tebet, Kota Jakarta Selatan, Daerah Khusus Ibukota Jakarta 12820",Unknown,0858-8102-1152,"4,4",Unknown,"Kamis,10.00 hingga 23.00",106.8582068,-6.2272595,https://www.google.com/maps/place/House+of+Tebet+145/data=!4m7!3m6!1s0x2e69f36d934e8c19:0x5e5a5bf85cd964fb!8m2!3d-6.2272595!4d106.8582068!16s%2Fg%2F11l3rks7mh!19sChIJGYxOk23zaS4R-2TZXPhbWl4?authuser=0&hl=id&rclk=1
Selawaktu Cafe,,"Jl. Tebet Timur Dalam Raya No.126, RT.2/RW.6, Tebet Tim., Kec. Tebet, Kota Jakarta Selatan, Daerah Khusus Ibukota Jakarta 12820",Unknown,Unknown,"4,5",Unknown,"Kamis,08.00 hingga 00.00",106.8571063,-6.2355215,https://www.google.com/maps/place/Selawaktu+Cafe/data=!4m7!3m6!1s0x2e69f3562648a057:0xaf463367670b6f6!8m2!3d-6.2355215!4d106.8571063!16s%2Fg%2F11fmwtdcvk!19sChIJV6BIJlbzaS4R9rZwdjZj9Ao?authuser=0&hl=id&rclk=1
3Point Cafe & Resto,,"Jl. Tebet Raya No.90, RT.1/RW.3, Tebet Tim., Kec. Tebet, Kota Jakarta Selatan, Daerah Khusus Ibukota Jakarta 12820",Unknown,0818-0622-2556,"4,7",Unknown,"Kamis,10.00 hingga 22.00",106.8573422,-6.2276224,https://www.google.com/maps/place/3Point+Cafe+%26+Resto/data=!4m7!3m6!1s0x2e69f30a957efb11:0xe25b7a8001ae3aa!8m2!3d-6.2276224!4d106.8573422!16s%2Fg%2F11sqj39m46!19sChIJEft-lQrzaS4RquMaAKi3JQ4?authuser=0&hl=id&rclk=1
Kopi Lima Detik Tebet,,"Jl. Tebet Timur Dalam II No.42, RT.1/RW.4, Tebet Tim., Kec. Tebet, Kota Jakarta Selatan, Daerah Khusus Ibukota Jakarta 12820",Unknown,0821-1809-3799,"4,6",Unknown,"Kamis,09.00 hingga 22.00",106.8560049,-6.2287003,https://www.google.com/maps/place/Kopi+Lima+Detik+Tebet/data=!4m7!3m6!1s0x2e69f31c4ee46c6f:0x49f9861f61e5727a!8m2!3d-6.2287003!4d106.8560049!16s%2Fg%2F11hxlv3qny!19sChIJb2zkThzzaS4RenLlYR-G-Uk?authuser=0&hl=id&rclk=1
Kopi Konnichiwa Tebet,,"Jl. Tebet Barat VIII No.22 10, RT.10/RW.3, Tebet Bar., Kec. Tebet, Jakarta, Daerah Khusus Ibukota Jakarta 12810",Unknown,0817-7997-4797,"4,5",Unknown,"Kamis,07.00 hingga 20.30",106.8487476,-6.2358209,https://www.google.com/maps/place/Kopi+Konnichiwa+Tebet/data=!4m7!3m6!1s0x2e69f37c71647105:0x5f07b34d7583a1a1!8m2!3d-6.2358209!4d106.8487476!16s%2Fg%2F11ns3m7t2t!19sChIJBXFkcXzzaS4RoaGDdU2zB18?authuser=0&hl=id&rclk=1
Kenduri Coffee House Tebet,,"jl.casablanca kav.18, Rt4 No.12, Menteng Dalam, Kec. Tebet, Kota Jakarta Selatan, Daerah Khusus Ibukota Jakarta 12960",Unknown,0815-4608-7291,"5,0",Unknown,"Kamis,07.00 hingga 21.00",106.8401438,-6.2248852,https://www.google.com/maps/place/Kenduri+Coffee+House+Tebet/data=!4m7!3m6!1s0x2e69f30053028ceb:0xf0c3a1e166779fd3!8m2!3d-6.2248852!4d106.8401438!16s%2Fg%2F11w_mrlk5h!19sChIJ64wCUwDzaS4R0593ZuGhw_A?authuser=0&hl=id&rclk=1
TOMORO COFFEE - Tebet,,"Jl. Tebet Raya No.16 A, RT.1/RW.2, Tebet Bar., Kec. Tebet, Kota Jakarta Selatan, Daerah Khusus Ibukota Jakarta 12810",Unknown,Unknown,"4,7",Unknown,"Kamis,08.00 hingga 22.00",106.8500797,-6.2300735,https://www.google.com/maps/place/TOMORO+COFFEE+-+Tebet/data=!4m7!3m6!1s0x2e69f380be84888d:0x148d9d0ee9911eb9!8m2!3d-6.2300735!4d106.8500797!16s%2Fg%2F11krmcvw3k!19sChIJjYiEvoDzaS4RuR6R6Q6djRQ?authuser=0&hl=id&rclk=1
Merial Coffee House,,"Jl. Tebet Timur Dalam II No.15, RT.3/RW.11, Tebet Tim., Kec. Tebet, Kota Jakarta Selatan, Daerah Khusus Ibukota Jakarta 12820",Unknown,0858-7846-0700,"4,6",Unknown,"Kamis,09.00 hingga 23.00",106.8561451,-6.2309623,https://www.google.com/maps/place/Merial+Coffee+House/data=!4m7!3m6!1s0x2e69f3cacde6ae2f:0xf4e208c58d48d47d!8m2!3d-6.2309623!4d106.8561451!16s%2Fg%2F11t5x9fzlf!19sChIJL67mzcrzaS4RfdRIjcUI4vQ?authuser=0&hl=id&rclk=1
Sallo Coffee,,"1, Jl. Tebet Timur Raya No.43, RT.5/RW.10, Tebet Tim., Kec. Tebet, Kota Jakarta Selatan, Daerah Khusus Ibukota Jakarta 12820",Unknown,Unknown,"4,3",Unknown,"Kamis,Buka 24 jam",106.8532321,-6.2390943,https://www.google.com/maps/place/Sallo+Coffee/data=!4m7!3m6!1s0x2e69f39a5568be19:0x323a8e9c42509a0e!8m2!3d-6.2390943!4d106.8532321!16s%2Fg%2F11cmtbtmz9!19sChIJGb5oVZrzaS4RDppQQpyOOjI?authuser=0&hl=id&rclk=1
Toko Kopi Klasik,,"Jl. Tebet Timur Dalam Raya No.29, RT.1/RW.8, Tebet Tim., Kec. Tebet, Kota Jakarta Selatan, Daerah Khusus Ibukota Jakarta 12820",Unknown,Unknown,"4,5",Unknown,"Kamis,07.00 hingga 23.00",106.8557424,-6.2320221,https://www.google.com/maps/place/Toko+Kopi+Klasik/data=!4m7!3m6!1s0x2e69f34064c1351f:0x27ba18c152dea6c4!8m2!3d-6.2320221!4d106.8557424!16s%2Fg%2F11tt0xjf04!19sChIJHzXBZEDzaS4RxKbeUsEYuic?authuser=0&hl=id&rclk=1
Etera Tebet,,"Jl. Tebet Raya No.73, RT.2/RW.1, Tebet Tim., Kec. Tebet, Kota Jakarta Selatan, Daerah Khusus Ibukota Jakarta 12820",Unknown,0895-3960-85050,"4,6",Unknown,"Kamis,10.00 hingga 23.00",106.8566064,-6.2275379,https://www.google.com/maps/place/Etera+Tebet/data=!4m7!3m6!1s0x2e69f322dff28aff:0xa45b4e3aab5fbf6e!8m2!3d-6.2275379!4d106.8566064!16s%2Fg%2F11s39lnjk8!19sChIJ_4ry3yLzaS4Rbr9fqzpOW6Q?authuser=0&hl=id&rclk=1
Coffee spot Tebet,,"Jl. Prof. DR. Soepomo No.13, Tebet Bar., Kec. Tebet, Jakarta, Daerah Khusus, RT.5/RW.6, Tebet Bar., Kec. Tebet, Jakarta, Daerah Khusus Ibukota Jakarta 12810",Unknown,0857-1612-4357,"4,9",Unknown,"Kamis,08.00 hingga 22.00",106.8452193,-6.2407804,https://www.google.com/maps/place/Coffee+spot+Tebet/data=!4m7!3m6!1s0x2e69f394c7a563e3:0xd5d9006306b07a77!8m2!3d-6.2407804!4d106.8452193!16s%2Fg%2F11m6b__ngg!19sChIJ42Olx5TzaS4Rd3qwBmMA2dU?authuser=0&hl=id&rclk=1
Kotak Coffee @Tebet,,"6, Jl. Tebet Barat IX No.33, RT.4/RW.4, Tebet Bar., Kec. Tebet, Kota Jakarta Selatan, Daerah Khusus Ibukota Jakarta 12810",Unknown,0859-7378-7251,"4,5",Unknown,"Kamis,08.00 hingga 22.00",106.8491415,-6.238896,https://www.google.com/maps/place/Kotak+Coffee+@Tebet/data=!4m7!3m6!1s0x2e69f3ff2e87ce81:0x19e6e994fc9523d4!8m2!3d-6.238896!4d106.8491415!16s%2Fg%2F11j4m1vqp8!19sChIJgc6HLv_zaS4R1COV_JTp5hk?authuser=0&hl=id&rclk=1
Kopi Deo,,"Jl. Tebet Timur Dalam II No.6, RT.1/RW.4, Tebet Tim., Kec. Tebet, Kota Jakarta Selatan, Daerah Khusus Ibukota Jakarta 12820",Unknown,0821-8749-5677,"4,6",Unknown,"Kamis,10.00 hingga 23.00",106.8556022,-6.2314958,https://www.google.com/maps/place/Kopi+Deo/data=!4m7!3m6!1s0x2e69f358045a4b11:0x9e55e4a433036b97!8m2!3d-6.2314958!4d106.8556022!16s%2Fg%2F11rx38q_jb!19sChIJEUtaBFjzaS4Rl2sDM6TkVZ4?authuser=0&hl=id&rclk=1
Relung Kopi,,"7, Jl. Tebet Barat IX No.17, RT.7/RW.4, Tebet Bar., Kec. Tebet, Kota Jakarta Selatan, Daerah Khusus Ibukota Jakarta 12810",Unknown,0822-1017-6262,"4,5",Unknown,"Kamis,07.00 hingga 23.30",106.8504262,-6.2385848,https://www.google.com/maps/place/Relung+Kopi/data=!4m7!3m6!1s0x2e69f374f56068eb:0x7e4dcf9b79d9deae!8m2!3d-6.2385848!4d106.8504262!16s%2Fg%2F11h_4nx3c4!19sChIJ62hg9XTzaS4Rrt7ZeZvPTX4?authuser=0&hl=id&rclk=1
KOPILOJIK,,"Jl. Tebet Timur Dalam Raya No.24 1, RT.1/RW.5, Tebet Tim., Kec. Tebet, Kota Jakarta Selatan, Daerah Khusus Ibukota Jakarta 12820",Unknown,0838-5133-4589,"4,7",Unknown,"Kamis,09.00 hingga 00.30",106.854971,-6.232052,https://www.google.com/maps/place/KOPILOJIK/data=!4m7!3m6!1s0x2e69f352bf3b502b:0xb9a04a70cc23d536!8m2!3d-6.232052!4d106.854971!16s%2Fg%2F11j4sn5s_5!19sChIJK1A7v1LzaS4RNtUjzHBKoLk?authuser=0&hl=id&rclk=1
Bukit Selatan at LOT139,,"Jl. Bukit Duri Selatan No.A4, Bukit Duri, Kec. Tebet, Jakarta, Daerah Khusus Ibukota Jakarta 12840",Unknown,Unknown,"4,8",Unknown,"Kamis,11.00 hingga 23.00",106.8535709,-6.2208808,https://www.google.com/maps/place/Bukit+Selatan+at+LOT139/data=!4m7!3m6!1s0x2e69f3af940ffb4d:0x7a3c8ca250a710f8!8m2!3d-6.2208808!4d106.8535709!16s%2Fg%2F11sdn6kfjn!19sChIJTfsPlK_zaS4R-BCnUKKMPHo?authuser=0&hl=id&rclk=1
Lektur (Coffee Shop),,"Jl. Tebet Timur Dalam Raya No.91 2, RT.2/RW.6, Tebet Tim., Kec. Tebet, Kota Jakarta Selatan, Daerah Khusus Ibukota Jakarta 12820",Unknown,0831-1117-0778,"4,7",Unknown,"Kamis,12.00 hingga 23.30",106.8571326,-6.2356099,https://www.google.com/maps/place/Lektur+%28Coffee+Shop%29/data=!4m7!3m6!1s0x2e69f39fc5937889:0xb25417381b1a1776!8m2!3d-6.2356099!4d106.8571326!16s%2Fg%2F11qq76w63d!19sChIJiXiTxZ_zaS4RdhcaGzgXVLI?authuser=0&hl=id&rclk=1
Malar Coffee,,"Jl. Tebet Barat IV No.11, Tebet Bar., Kec. Tebet, Kota Jakarta Selatan, Daerah Khusus Ibukota Jakarta 12810",Unknown,Unknown,"4,6",Unknown,"Kamis,08.00 hingga 22.00",106.8492641,-6.2340932,https://www.google.com/maps/place/Malar+Coffee/data=!4m7!3m6!1s0x2e69f3b97926cbdd:0x1f8121e0cc73ff8b!8m2!3d-6.2340932!4d106.8492641!16s%2Fg%2F11kr8sksvp!19sChIJ3csmebnzaS4Ri_9zzOAhgR8?authuser=0&hl=id&rclk=1
Darling Habit Bake & Butter,,"65, Jl. Tebet Bar. No.65, RT.10/RW.5, West Tebet, Tebet, South Jakarta City, Jakarta 12810",Unknown,0823-1151-6889,"4,5",Unknown,"Kamis,08.00 hingga 22.00",106.8523749,-6.241491,https://www.google.com/maps/place/Darling+Habit+Bake+%26+Butter/data=!4m7!3m6!1s0x2e69f3bca44c299d:0x5deca12266f531a4!8m2!3d-6.241491!4d106.8523749!16s%2Fg%2F11g1lw9w1q!19sChIJnSlMpLzzaS4RpDH1ZiKh7F0?authuser=0&hl=id&rclk=1
Gora Coffee & Eatery Tebet,,"Jl. Tebet Raya No.11G 1, RT.20/RW.2, Tebet Bar., Kec. Tebet, Kota Jakarta Selatan, Daerah Khusus Ibukota Jakarta 12810",Unknown,(021) 8318496,"4,6",Unknown,"Kamis,09.00 hingga 21.30",106.8507106,-6.2299063,https://www.google.com/maps/place/Gora+Coffee+%26+Eatery+Tebet/data=!4m7!3m6!1s0x2e69f35b73ccb295:0x41df397165012abd!8m2!3d-6.2299063!4d106.8507106!16s%2Fg%2F11glfv9tv0!19sChIJlbLMc1vzaS4RvSoBZXE530E?authuser=0&hl=id&rclk=1
Ramu Nostalgia - Tebet,,"Jl. Tebet Barat Dalam Raya IX No.56, RT.3/RW.3, Tebet Bar., Kec. Tebet, Kota Jakarta Selatan, Daerah Khusus Ibukota Jakarta 12810",Unknown,Unknown,"4,2",Unknown,"Kamis,12.00 hingga 02.00",106.8483431,-6.238877,https://www.google.com/maps/place/Ramu+Nostalgia+-+Tebet/data=!4m7!3m6!1s0x2e69f35f575d9a31:0xf79db71b63b4ad3c!8m2!3d-6.238877!4d106.8483431!16s%2Fg%2F11rhh2_xd2!19sChIJMZpdV1_zaS4RPK20Yxu3nfc?authuser=0&hl=id&rclk=1
"BUNTU Coffee, Kitchen & Space",,"Jl. Tebet Timur Dalam Raya No.22, RT.1/RW.5, Tebet Tim., Kec. Tebet, Kota Jakarta Selatan, Daerah Khusus Ibukota Jakarta 12820",Unknown,0857-2181-9999,"4,6",Unknown,"Kamis,10.00 hingga 22.30",106.8547324,-6.231988,"https://www.google.com/maps/place/BUNTU+Coffee,+Kitchen+%26+Space/data=!4m7!3m6!1s0x2e69f333ef2e1f69:0x1b0ef87ee388a60a!8m2!3d-6.231988!4d106.8547324!16s%2Fg%2F11gzs5_5bj!19sChIJaR8u7zPzaS4RCqaI4374Dhs?authuser=0&hl=id&rclk=1"
TORAJA COFFEE HOUSE,,"Jl. Raya Casablanca No.1 B, RT.9/RW.10, Menteng Dalam, Kec. Tebet, Kota Jakarta Selatan, Daerah Khusus Ibukota Jakarta 12870",Unknown,(021) 28542136,"4,6",Unknown,"Kamis,09.00 hingga 22.00",106.8360671,-6.2258471,https://www.google.com/maps/place/TORAJA+COFFEE+HOUSE/data=!4m7!3m6!1s0x2e69f3f218702c6f:0xd04840d72f20af89!8m2!3d-6.2258471!4d106.8360671!16s%2Fg%2F11fz9c5jkq!19sChIJbyxwGPLzaS4Ria8gL9dASNA?authuser=0&hl=id&rclk=1
OSH Jakarta,,"Jl. Tebet Barat IX No.3, RT.7/RW.5, Tebet Bar., Kec. Tebet, Kota Jakarta Selatan, Daerah Khusus Ibukota Jakarta 12810",Unknown,0852-1814-1171,"4,8",Unknown,"Kamis,09.00 hingga 22.00",106.8514282,-6.2384529,https://www.google.com/maps/place/OSH+Jakarta/data=!4m7!3m6!1s0x2e69f39a9a5c9a11:0x59e9582fe2105155!8m2!3d-6.2384529!4d106.8514282!16s%2Fg%2F11stnx6601!19sChIJEZpcmprzaS4RVVEQ4i9Y6Vk?authuser=0&hl=id&rclk=1
UNITE TEBET || Coffee & Social Space,,"Jl. KH Abdullah Syafei No.20, RT.4/RW.1, Manggarai Sel., Kec. Tebet, Kota Jakarta Selatan, Daerah Khusus Ibukota Jakarta 12810",Unknown,0877-9898-5561,"4,3",Unknown,"Kamis,10.00 hingga 02.00",106.8490267,-6.2239074,https://www.google.com/maps/place/UNITE+TEBET+%7C%7C+Coffee+%26+Social+Space/data=!4m7!3m6!1s0x2e69f3b3bc32d3fd:0x6b2d0fce1fe0d524!8m2!3d-6.2239074!4d106.8490267!16s%2Fg%2F11xkg8bfqw!19sChIJ_dMyvLPzaS4RJNXgH84PLWs?authuser=0&hl=id&rclk=1
Williams Coffee & Roaster,,"Jl. Tebet Timur Dalam Raya No.65C, RT.11/RW.7, Tebet Tim., Kec. Tebet, Kota Jakarta Selatan, Daerah Khusus Ibukota Jakarta 12840",Unknown,0821-2231-2935,"4,5",Unknown,"Kamis,09.00 hingga 02.00",106.8566266,-6.2374722,https://www.google.com/maps/place/Williams+Coffee+%26+Roaster/data=!4m7!3m6!1s0x2e69f3b035d59edd:0x2d344afaf0475c89!8m2!3d-6.2374722!4d106.8566266!16s%2Fg%2F11jt1jlyz4!19sChIJ3Z7VNbDzaS4RiVxH8PpKNC0?authuser=0&hl=id&rclk=1
Until Tomorrow 888 - Tebet,,"Jl. Tebet Timur Dalam Raya No.99, RT.3/RW.6, Tebet Tim., Kec. Tebet, Kota Jakarta Selatan, Daerah Khusus Ibukota Jakarta 12820",Unknown,0812-2828-0595,"4,8",Unknown,Unknown,106.857092,-6.2363287,https://www.google.com/maps/place/Until+Tomorrow+888+-+Tebet/data=!4m7!3m6!1s0x2e69f318696facb3:0xc0bee6a405161063!8m2!3d-6.2363287!4d106.857092!16s%2Fg%2F11shss5fvt!19sChIJs6xvaRjzaS4RYxAWBaTmvsA?authuser=0&hl=id&rclk=1
Kafein Tebet,,"4, Jl. KH Abdullah Syafei No.26, RT.1/RW.1, Manggarai Sel., Kec. Tebet, Kota Jakarta Selatan, Daerah Khusus Ibukota Jakarta 12860",Unknown,0878-2421-3317,"4,8",Unknown,"Kamis,12.00 hingga 20.00",106.8483368,-6.2239348,https://www.google.com/maps/place/Kafein+Tebet/data=!4m7!3m6!1s0x2e69f39a7cf97b67:0xf1e7cffed29c6644!8m2!3d-6.2239348!4d106.8483368!16s%2Fg%2F11kf90_8vj!19sChIJZ3v5fJrzaS4RRGac0v7P5_E?authuser=0&hl=id&rclk=1
Kopi Domu,,"Jl. Tebet Barat IX No.58, RT.6/RW.4, Tebet Bar., Kec. Tebet, Kota Jakarta Selatan, Daerah Khusus Ibukota Jakarta 12810",Unknown,0877-8415-5775,"4,4",Unknown,"Kamis,Buka 24 jam",106.8481586,-6.2389374,https://www.google.com/maps/place/Kopi+Domu/data=!4m7!3m6!1s0x2e69f393b5c3e641:0x90c11cf7bffa6f1f!8m2!3d-6.2389374!4d106.8481586!16s%2Fg%2F11mb0s1q92!19sChIJQebDtZPzaS4RH2_6v_ccwZA?authuser=0&hl=id&rclk=1
Coffite,,"Jl. Tebet Barat Dalam Raya No.32 14, RT.14/RW.3, Tebet Bar., Kec. Tebet, Kota Jakarta Selatan, Daerah Khusus Ibukota Jakarta 12810",Unknown,0878-8447-1704,"4,5",Unknown,"Kamis,07.00 hingga 22.00",106.8464569,-6.2345237,https://www.google.com/maps/place/Coffite/data=!4m7!3m6!1s0x2e69f395cd3f4b39:0x98fb5dcb19129441!8m2!3d-6.2345237!4d106.8464569!16s%2Fg%2F11fzf4gh4d!19sChIJOUs_zZXzaS4RQZQSGctd-5g?authuser=0&hl=id&rclk=1
Agna Coffee,,"Jl. Tebet Barat VIII No.8A, RT.10/RW.3, Tebet Bar., Kec. Tebet, Kota Jakarta Selatan, Daerah Khusus Ibukota Jakarta 12810",Unknown,0851-7337-7077,"4,6",Unknown,"Kamis,09.00 hingga 23.00",106.848423,-6.2349468,https://www.google.com/maps/place/Agna+Coffee/data=!4m7!3m6!1s0x2e69f387fad3f0a5:0xc66df72d9bf85a0c!8m2!3d-6.2349468!4d106.848423!16s%2Fg%2F11sx53lcgm!19sChIJpfDT-ofzaS4RDFr4my33bcY?authuser=0&hl=id&rclk=1
Kedai Kopi Kani - Tebet,,"Jl. Tebet Timur Dalam Raya No.7, RT.8/RW.4, Tebet Tim., Kec. Tebet, Kota Jakarta Selatan, Daerah Khusus Ibukota Jakarta 12820",Unknown,0811-1887-007,"4,9",Unknown,"Kamis,07.30 hingga 22.00",106.8537256,-6.2318393,https://www.google.com/maps/place/Kedai+Kopi+Kani+-+Tebet/data=!4m7!3m6!1s0x2e69f3001bcff2c1:0xfc5acbd16785291e!8m2!3d-6.2318393!4d106.8537256!16s%2Fg%2F11vk356mln!19sChIJwfLPGwDzaS4RHimFZ9HLWvw?authuser=0&hl=id&rclk=1
a better cup coffee - Tebet,,"Jl. Tebet Raya No.58c, RT.2/RW.4, Tebet Tim., Kec. Tebet, Kota Jakarta Selatan, Daerah Khusus Ibukota Jakarta 12820",Unknown,0877-0060-6671,"4,8",Unknown,"Kamis,07.00 hingga 22.00",106.8548458,-6.2289051,https://www.google.com/maps/place/a+better+cup+coffee+-+Tebet/data=!4m7!3m6!1s0x2e69f379cc999dab:0xd9c6b85f1ff5c046!8m2!3d-6.2289051!4d106.8548458!16s%2Fg%2F11xdml0zly!19sChIJq52ZzHnzaS4RRsD1H1-4xtk?authuser=0&hl=id&rclk=1
Cerita COFFEE,,"Jl. Tebet Timur Dalam III No.22, RT.6/RW.3, Tebet Tim., Kec. Tebet, Kota Jakarta Selatan, Daerah Khusus Ibukota Jakarta 12820",Unknown,Unknown,"4,4",Unknown,"Kamis,07.00 hingga 23.00",106.8582033,-6.2294154,https://www.google.com/maps/place/Cerita+COFFEE/data=!4m7!3m6!1s0x2e69f3e9797b0c33:0x985d1096d606333a!8m2!3d-6.2294154!4d106.8582033!16s%2Fg%2F11j8pm38t8!19sChIJMwx7eenzaS4ROjMG1pYQXZg?authuser=0&hl=id&rclk=1
Vendita Coffee,,"QR8X+HMP, Jl. Tebet Barat I No.23, RT.7/RW.2, Tebet Bar., Kec. Tebet, Kota Jakarta Selatan, Daerah Khusus Ibukota Jakarta 12810",Unknown,0838-2031-6564,"4,5",Unknown,"Kamis,09.00 hingga 00.00",106.8492263,-6.2336209,https://www.google.com/maps/place/Vendita+Coffee/data=!4m7!3m6!1s0x2e69f3380314e0d9:0xd72d80902481a051!8m2!3d-6.2336209!4d106.8492263!16s%2Fg%2F11s32wq9px!19sChIJ2eAUAzjzaS4RUaCBJJCALdc?authuser=0&hl=id&rclk=1
DALE COFFEE,,"5, Jl. Tebet Utara I No.31e, RT.5/RW.2, Kel.Tebet Utara, Tebet, South Jakarta City, Jakarta 12820",Unknown,0812-9090-1699,"4,8",Unknown,"Kamis,09.00 hingga 00.00",106.8527288,-6.2269539,https://www.google.com/maps/place/DALE+COFFEE/data=!4m7!3m6!1s0x2e69f3e827b81013:0xeb7e1ac6bd2f5d23!8m2!3d-6.2269539!4d106.8527288!16s%2Fg%2F11p011rfkj!19sChIJExC4J-jzaS4RI10vvcYafus?authuser=0&hl=id&rclk=1
Makan di Tebet,,"Jalan Tebet Barat Dalam Raya No.29, Dalam Raya No.29, RT.7/RW.3, Tebet Bar., Kec. Tebet, Jakarta, Daerah Khusus Ibukota Jakarta 12810",Unknown,0878-8844-3003,"4,8",Unknown,"Kamis,11.00 hingga 22.00",106.8470392,-6.2361953,https://www.google.com/maps/place/Makan+di+Tebet/data=!4m7!3m6!1s0x2e69f33c51870995:0xde9436e4fe1f09d2!8m2!3d-6.2361953!4d106.8470392!16s%2Fg%2F11q1c9ssfk!19sChIJlQmHUTzzaS4R0gkf_uQ2lN4?authuser=0&hl=id&rclk=1
Cerita Kopiku Tebet,,"Jl. Pal Batu Raya No.20, RT.17/RW.5, Menteng Dalam, Kec. Tebet, jakarta, Daerah Khusus Ibukota Jakarta 12820",Unknown,0878-8882-2020,"4,8",Unknown,"Kamis,12.00 hingga 22.00",106.845283,-6.224374,https://www.google.com/maps/place/Cerita+Kopiku+Tebet/data=!4m7!3m6!1s0x2e69f3208347ed79:0xa8c778db6966ebda!8m2!3d-6.224374!4d106.845283!16s%2Fg%2F11l8p36lsr!19sChIJee1HgyDzaS4R2utmadt4x6g?authuser=0&hl=id&rclk=1
TENKU Tebet,,"Jl. Tebet Barat Dalam Raya No.76A 17, RT.17/RW.6, Tebet Bar., Kec. Tebet, Kota Jakarta Selatan, Daerah Khusus Ibukota Jakarta 12810",Unknown,0852-8272-7632,"4,6",Unknown,"Kamis,09.00 hingga 22.00",106.8470227,-6.2376198,https://www.google.com/maps/place/TENKU+Tebet/data=!4m7!3m6!1s0x2e69f375a50dba77:0x8240a5eb890b016d!8m2!3d-6.2376198!4d106.8470227!16s%2Fg%2F11ltdmtd9s!19sChIJd7oNpXXzaS4RbQELieulQII?authuser=0&hl=id&rclk=1
Jora (Tebet),,"Jl. Tebet Timur Dalam Raya No.121, RT.5/RW.6, Tebet Tim., Kec. Tebet, Kota Jakarta Selatan, Daerah Khusus Ibukota Jakarta 12820",Unknown,0813-1849-0710,"4,5",Unknown,"Kamis,08.00 hingga 22.00",106.8569679,-6.2380642,https://www.google.com/maps/place/Jora+%28Tebet%29/data=!4m7!3m6!1s0x2e69f36058247b6f:0x48e35dd9602b83bb!8m2!3d-6.2380642!4d106.8569679!16s%2Fg%2F11j4wnlkzw!19sChIJb3skWGDzaS4Ru4MrYNld40g?authuser=0&hl=id&rclk=1
Kedai Kopi Palstone,,"Jl. Tebet Timur II No.33, RT.6/RW.5, Tebet Tim., Kec. Tebet, Kota Jakarta Selatan, Daerah Khusus Ibukota Jakarta 12820",Unknown,Unknown,"4,7",Unknown,"Kamis,10.00 hingga 22.00",106.856124,-6.2354777,https://www.google.com/maps/place/Kedai+Kopi+Palstone/data=!4m7!3m6!1s0x2e69f38640b3a30d:0x91f7e124b4c20426!8m2!3d-6.2354777!4d106.856124!16s%2Fg%2F11q960b9d1!19sChIJDaOzQIbzaS4RJgTCtCTh95E?authuser=0&hl=id&rclk=1
GIORGI COFFEE HOUSE,,"Graha Metro Pura, Jl. Tebet Barat I, Tebet Bar., Kec. Tebet, Kota Jakarta Selatan, Daerah Khusus Ibukota Jakarta 12810",Unknown,(021) 50110000,"4,7",Unknown,"Kamis,08.00 hingga 22.30",106.8494989,-6.2299771,https://www.google.com/maps/place/GIORGI+COFFEE+HOUSE/data=!4m7!3m6!1s0x2e69f30f65fbd241:0xc841e2447f701a0e!8m2!3d-6.2299771!4d106.8494989!16s%2Fg%2F11qh91mw9g!19sChIJQdL7ZQ_zaS4RDhpwf0TiQcg?authuser=0&hl=id&rclk=1
NIDU.COFFEE,,"Jl. Tebet Timur Dalam Raya No.Dalam, RT.6/RW.5, Tebet Tim., Kec. Tebet, Kota Jakarta Selatan, Daerah Khusus Ibukota Jakarta 12820",Unknown,Unknown,"4,8",Unknown,"Kamis,10.00 hingga 23.00",106.8567609,-6.2352666,https://www.google.com/maps/place/NIDU.COFFEE/data=!4m7!3m6!1s0x2e69f3c215858df7:0xd2264b688d981e6!8m2!3d-6.2352666!4d106.8567609!16s%2Fg%2F11qnfvrcjb!19sChIJ942FFcLzaS4R5oHZiLZkIg0?authuser=0&hl=id&rclk=1
Lestari Coffee Tebet Eco Park,,"Jl. Tebet Timur Raya No.5, RT.1/RW.7, Tebet Tim., Kec. Tebet, Kota Jakarta Selatan, Daerah Khusus Ibukota Jakarta 12820",Unknown,0811-9529-777,"4,9",Unknown,"Kamis,08.00 hingga 20.00",106.8536977,-6.2365105,https://www.google.com/maps/place/Lestari+Coffee+Tebet+Eco+Park/data=!4m7!3m6!1s0x2e69f3b462bea21f:0x1af67837b3f72507!8m2!3d-6.2365105!4d106.8536977!16s%2Fg%2F11fst09hft!19sChIJH6K-YrTzaS4RByX3szd49ho?authuser=0&hl=id&rclk=1
Happy House,,"Jl. Tebet Timur Dalam Raya No.40, RT.4/RW.5, Tebet Tim., Kec. Tebet, Kota Jakarta Selatan, Daerah Khusus Ibukota Jakarta 12820",Unknown,Unknown,"4,4",Unknown,"Kamis,12.00 hingga 00.00",106.8562245,-6.2401185,https://www.google.com/maps/place/Happy+House/data=!4m7!3m6!1s0x2e69f330f83aef77:0xaaaf0a7af28e5f62!8m2!3d-6.2401185!4d106.8562245!16s%2Fg%2F11vl8ssfh1!19sChIJd-86-DDzaS4RYl-O8noKr6o?authuser=0&hl=id&rclk=1
Potpourri Cafe - Tebet Jakarta,,"Sofyan Hotel Soepomo, Jl. Prof. DR. Soepomo No.23 Lt 1, RT.3/RW.3, Tebet Bar., Kec. Tebet, Kota Jakarta Selatan, Daerah Khusus Ibukota Jakarta 12810",Unknown,0811-9121-256,"4,4",Unknown,"Kamis,08.00 hingga 22.00",106.8447176,-6.2367347,https://www.google.com/maps/place/Potpourri+Cafe+-+Tebet+Jakarta/data=!4m7!3m6!1s0x2e69f3be2a7ebce9:0xc9344ad9a3369d8b!8m2!3d-6.2367347!4d106.8447176!16s%2Fg%2F11c1ctms81!19sChIJ6bx-Kr7zaS4Ri502o9lKNMk?authuser=0&hl=id&rclk=1
Starbucks Tebet Raya,,"1, Jl. Tebet Raya No.27b, RT.1/RW.2, Tebet Tim., Kec. Tebet, Kota Jakarta Selatan, Daerah Khusus Ibukota Jakarta 12820",Unknown,(021) 22833765,"4,6",Unknown,"Kamis,06.30 hingga 22.00",106.8530733,-6.2292651,https://www.google.com/maps/place/Starbucks+Tebet+Raya/data=!4m7!3m6!1s0x2e69f378944649e5:0xa20a50761e66b74!8m2!3d-6.2292651!4d106.8530733!16s%2Fg%2F11f66pwbh3!19sChIJ5UlGlHjzaS4RdGvmYQelIAo?authuser=0&hl=id&rclk=1
BigBen kopi,,"7, Jl. Tebet Barat IX No.1A 7, RT.4/RW.4, Tebet Bar., Kec. Tebet, Kota Jakarta Selatan, Daerah Khusus Ibukota Jakarta 12810",Unknown,0821-1256-3806,"4,4",Unknown,"Kamis,10.00 hingga 22.00",106.8518783,-6.2384694,https://www.google.com/maps/place/BigBen+kopi/data=!4m7!3m6!1s0x2e69f3e61967ac6f:0x43914db344569a8b!8m2!3d-6.2384694!4d106.8518783!16s%2Fg%2F11g0kcdv36!19sChIJb6xnGebzaS4Ri5pWRLNNkUM?authuser=0&hl=id&rclk=1
Wiken Koffie,,"Jl. Tebet Barat Dalam Raya No.1, RT.12/RW.6, Tebet Bar., Kec. Tebet, Kota Jakarta Selatan, Daerah Khusus Ibukota Jakarta 12810",Unknown,Unknown,"4,7",Unknown,"Kamis,09.00 hingga 21.00",106.8462837,-6.2320907,https://www.google.com/maps/place/Wiken+Koffie/data=!4m7!3m6!1s0x2e69f36b265baf1b:0x9704fa8fddf7412c!8m2!3d-6.2320907!4d106.8462837!16s%2Fg%2F11h8c9gv_v!19sChIJG69bJmvzaS4RLEH33Y_6BJc?authuser=0&hl=id&rclk=1
Boost Coffee,,"Jl. Tebet Timur Dalam Raya No.13A, RT.8/RW.8, Tebet Tim., Kec. Tebet, Kota Jakarta Selatan, Daerah Khusus Ibukota Jakarta 12820",Unknown,0813-8955-5150,"4,6",Unknown,"Kamis,10.00 hingga 23.00",106.8545772,-6.2403236,https://www.google.com/maps/place/Boost+Coffee/data=!4m7!3m6!1s0x2e69f3aea3cf2cfd:0x2644657c58e82360!8m2!3d-6.2403236!4d106.8545772!16s%2Fg%2F11h5gm21gn!19sChIJ_SzPo67zaS4RYCPoWHxlRCY?authuser=0&hl=id&rclk=1
Kafe Jati,,"Jl. Tebet Barat IX No.30, RT.5/RW.4, Tebet Bar., Kec. Tebet, Kota Jakarta Selatan, Daerah Khusus Ibukota Jakarta 12810",Unknown,0878-7751-0000,"4,2",Unknown,"Kamis,10.00 hingga 00.00",106.8494663,-6.2384289,https://www.google.com/maps/place/Kafe+Jati/data=!4m7!3m6!1s0x2e69f34dce6ac9fb:0xeef51506153d6387!8m2!3d-6.2384289!4d106.8494663!16s%2Fg%2F11l4v6r0jg!19sChIJ-8lqzk3zaS4Rh2M9FQYV9e4?authuser=0&hl=id&rclk=1
Point Coffee,,"Jl. Prof. DR. Soepomo No.RT.1, RT.13/RW.2, Tebet Bar., Kec. Tebet, Kota Jakarta Selatan, Daerah Khusus Ibukota Jakarta 12810",Unknown,(021) 1500280,"4,7",Unknown,"Kamis,06.00 hingga 21.00",106.8474739,-6.2292272,https://www.google.com/maps/place/Point+Coffee/data=!4m7!3m6!1s0x2e69f32fa0b45d91:0xe9436420a56a0c64!8m2!3d-6.2292272!4d106.8474739!16s%2Fg%2F11ghtqrfg3!19sChIJkV20oC_zaS4RZAxqpSBkQ-k?authuser=0&hl=id&rclk=1
Brown Bottle Coffee,,"Jl. Tebet Timur Dalam II No.20, RT.1/RW.4, Tebet Tim., Kec. Tebet, Kota Jakarta Selatan, Daerah Khusus Ibukota Jakarta 12820",Unknown,0819-4700-0012,"3,8",Unknown,"Kamis,09.00 hingga 23.00",106.8560106,-6.2303419,https://www.google.com/maps/place/Brown+Bottle+Coffee/data=!4m7!3m6!1s0x2e69f398eeb8c9fb:0xda424b0b4e9a07c!8m2!3d-6.2303419!4d106.8560106!16s%2Fg%2F11k3q0mnvy!19sChIJ-8m47pjzaS4RfKDptLAkpA0?authuser=0&hl=id&rclk=1
Westward Coffee,,"Jl. Tebet Barat Dalam Raya No.29, RT.7/RW.3, Tebet Bar., Kec. Tebet, Kota Jakarta Selatan, Daerah Khusus Ibukota Jakarta 12810",Unknown,0812-8384-8620,"4,6",Unknown,"Kamis,07.00 hingga 23.59",106.8469843,-6.236105,https://www.google.com/maps/place/Westward+Coffee/data=!4m7!3m6!1s0x2e69f3d2a0e99707:0xe518d7aff31f9f5b!8m2!3d-6.236105!4d106.8469843!16s%2Fg%2F11h1fy_zdh!19sChIJB5fpoNLzaS4RW58f86_XGOU?authuser=0&hl=id&rclk=1
Coffee of Things,,"Jl. Tebet Barat Dalam IX No.19 3, RT.3/RW.6, Tebet Bar., Kec. Tebet, Kota Jakarta Selatan, Daerah Khusus Ibukota Jakarta 12810",Unknown,0852-1386-8670,"4,9",Unknown,"Kamis,Tutup",106.8457565,-6.2414784,https://www.google.com/maps/place/Coffee+of+Things/data=!4m7!3m6!1s0x2e69f3e7bed75e77:0x101e747d203f4670!8m2!3d-6.2414784!4d106.8457565!16s%2Fg%2F11hz_3957t!19sChIJd17XvufzaS4RcEY_IH10HhA?authuser=0&hl=id&rclk=1
Titik Temu Brew Bar - Tebet,,"Jl. Tebet Timur Dalam Raya No.56, RT.1/RW.9, Tebet Tim., Kec. Tebet, Kota Jakarta Selatan, Daerah Khusus Ibukota Jakarta 12820",Unknown,0811-8708-368,"3,8",Unknown,"Kamis,08.00 hingga 23.00",106.8567026,-6.2388916,https://www.google.com/maps/place/Titik+Temu+Brew+Bar+-+Tebet/data=!4m7!3m6!1s0x2e69f35b48c7b0d5:0x4407082f65355380!8m2!3d-6.2388916!4d106.8567026!16s%2Fg%2F11jz69_w60!19sChIJ1bDHSFvzaS4RgFM1ZS8IB0Q?authuser=0&hl=id&rclk=1
JEP kopi,,"Jalan Tebet Timur Dalam Raya Kav. 81 No.9, Tebet Timur, Tebet, RT.8/RW.8, Tebet Tim., Kec. Tebet, Kota Jakarta Selatan, Daerah Khusus Ibukota Jakarta 12820",Unknown,(021) 83706139,"4,8",Unknown,"Kamis,09.00 hingga 17.00",106.8542271,-6.2404236,https://www.google.com/maps/place/JEP+kopi/data=!4m7!3m6!1s0x2e69f3a339080f1f:0xdc0cbdb96f77ef46!8m2!3d-6.2404236!4d106.8542271!16s%2Fg%2F11fx9449yn!19sChIJHw8IOaPzaS4RRu93b7m9DNw?authuser=0&hl=id&rclk=1
SHELTREE Coffee & Eatery,,"Samping Panin Bank, 1, Jl. Tebet Timur Dalam Raya No.65, RT.1/RW.6, Tebet Tim., Kec. Tebet, Kota Jakarta Selatan, Daerah Khusus Ibukota Jakarta 12820",Unknown,0857-8744-4447,"4,7",Unknown,"Kamis,13.00 hingga 22.00",106.8570125,-6.2344397,https://www.google.com/maps/place/SHELTREE+Coffee+%26+Eatery/data=!4m7!3m6!1s0x2e69f35846ced2a9:0x4b48fabda5ed1ede!8m2!3d-6.2344397!4d106.8570125!16s%2Fg%2F11rq2jfv_w!19sChIJqdLORljzaS4R3h7tpb36SEs?authuser=0&hl=id&rclk=1
Komo Koffie Tebet,,"Jl. Tebet Barat Dalam X, RT.11/RW.5, Tebet Bar., Kec. Tebet, Kota Jakarta Selatan, Daerah Khusus Ibukota Jakarta 12810",Unknown,0811-8501-520,"4,7",Unknown,"Kamis,08.00 hingga 23.00",106.8525898,-6.2422641,https://www.google.com/maps/place/Komo+Koffie+Tebet/data=!4m7!3m6!1s0x2e69f3678989a4af:0x7a8504e494761565!8m2!3d-6.2422641!4d106.8525898!16s%2Fg%2F11x31x2yyr!19sChIJr6SJiWfzaS4RZRV2lOQEhXo?authuser=0&hl=id&rclk=1
Toko Kopi TUKU - Tebet (Online Delivery Only),,"Jl. Tebet Barat Dalam VII No.4 9, RT.11/RW.6, Tebet Bar., Kec. Tebet, Kota Jakarta Selatan, Daerah Khusus Ibukota Jakarta 12810",Unknown,0811-1123-071,"4,2",Unknown,"Kamis,07.00 hingga 21.00",106.8473197,-6.2397753,https://www.google.com/maps/place/Toko+Kopi+TUKU+-+Tebet+%28Online+Delivery+Only%29/data=!4m7!3m6!1s0x2e69f385722a8fad:0x8c0d63cc42cfbc1f!8m2!3d-6.2397753!4d106.8473197!16s%2Fg%2F11j8qspmt1!19sChIJrY8qcoXzaS4RH7zPQsxjDYw?authuser=0&hl=id&rclk=1
Kopi Kenangan - Ruko Tebet Jakarta,,"Jl. Tebet Raya, RT.3/RW.2, Tebet Tim., Kec. Tebet, Kota Jakarta Selatan, Daerah Khusus Ibukota Jakarta 12820",Unknown,0817-0756-885,"4,5",Unknown,"Kamis,07.00 hingga 23.50",106.8545803,-6.2286025,https://www.google.com/maps/place/Kopi+Kenangan+-+Ruko+Tebet+Jakarta/data=!4m7!3m6!1s0x2e69f37ee1d57dcf:0x1a167da913d99c6b!8m2!3d-6.2286025!4d106.8545803!16s%2Fg%2F11hhrhh8g4!19sChIJz33V4X7zaS4Ra5zZE6l9Fho?authuser=0&hl=id&rclk=1
Onkel John's Jakarta,,"Jl. Tebet Dalam IV No.1X, Tebet Bar., Kec. Tebet, Kota Jakarta Selatan, Daerah Khusus Ibukota Jakarta 12810",Unknown,0812-8920-7980,"4,8",Unknown,"Kamis,15.00 hingga 23.00",106.8516512,-6.2267736,https://www.google.com/maps/place/Onkel+John%27s+Jakarta/data=!4m7!3m6!1s0x2e69f3edb7015817:0xdd39040dbbd22057!8m2!3d-6.2267736!4d106.8516512!16s%2Fg%2F11sb97gsx0!19sChIJF1gBt-3zaS4RVyDSuw0EOd0?authuser=0&hl=id&rclk=1
Frenchie Cafe,,"Jl. Tebet Barat XI PAV No.3, RT.8/RW.5, Tebet Bar., Kec. Tebet, Kota Jakarta Selatan, Daerah Khusus Ibukota Jakarta 12810",Unknown,0878-2044-1800,"4,4",Unknown,"Kamis,08.00 hingga 18.00",106.8511869,-6.2404116,https://www.google.com/maps/place/Frenchie+Cafe/data=!4m7!3m6!1s0x2e69f3c2a0d312e5:0xe61a9b3d1858b627!8m2!3d-6.2404116!4d106.8511869!16s%2Fg%2F11r216jwhs!19sChIJ5RLToMLzaS4RJ7ZYGD2bGuY?authuser=0&hl=id&rclk=1
Brownfield Coffee,,"Jl. Tebet Utara Dalam No.24D, RT.10/RW.1, Tebet Tim., Kec. Tebet, Kota Jakarta Selatan, Daerah Khusus Ibukota Jakarta 12820",Unknown,0851-7692-2241,"4,8",Unknown,Unknown,106.8549671,-6.2264462,https://www.google.com/maps/place/Brownfield+Coffee/data=!4m7!3m6!1s0x2e69f15d753b3f51:0x45000ec521b2bf3a!8m2!3d-6.2264462!4d106.8549671!16s%2Fg%2F11t4yr3gsj!19sChIJUT87dV3xaS4ROr-yIcUOAEU?authuser=0&hl=id&rclk=1
Sang Cafe Jakarta,,"Jl. Tebet Timur Dalam Raya No.69 Lt 2, RT.11/RW.7, Tebet Tim., Kec. Tebet, Kota Jakarta Selatan, Daerah Khusus Ibukota Jakarta 12820",Unknown,0811-1909-150,"4,6",Unknown,"Kamis,11.00 hingga 21.00",106.856664,-6.2372,https://www.google.com/maps/place/Sang+Cafe+Jakarta/data=!4m7!3m6!1s0x2e69f188540588ab:0xb294df6a4a41bb4f!8m2!3d-6.2372!4d106.856664!16s%2Fg%2F11f5h5w4s8!19sChIJq4gFVIjxaS4RT7tBSmrflLI?authuser=0&hl=id&rclk=1
KOPITALA TEBET,,"Jl. Asem Baris Raya No.60 6, RT.3/RW.5, Kb. Baru, Kec. Tebet, Kota Jakarta Selatan, Daerah Khusus Ibukota Jakarta 12830",Unknown,0877-7421-4431,"4,7",Unknown,"Kamis,13.00 hingga 22.00",106.8590481,-6.2295134,https://www.google.com/maps/place/KOPITALA+TEBET/data=!4m7!3m6!1s0x2e69f39fd0621dd5:0x157ee8854a0376ae!8m2!3d-6.2295134!4d106.8590481!16s%2Fg%2F11m9snxn0g!19sChIJ1R1i0J_zaS4RrnYDSoXofhU?authuser=0&hl=id&rclk=1
Snapy Markaz & Coffee - Working & Coffee Heaven,,"Griya D'ros, Jl. Tebet Utara Dalam No.1, RT.5/RW.1, Tebet Tim., Kec. Tebet, Kota Jakarta Selatan, Daerah Khusus Ibukota Jakarta 12820",Unknown,(021) 83795938,"4,9",Unknown,"Kamis,07.00 hingga 00.00",106.8550709,-6.2255621,https://www.google.com/maps/place/Snapy+Markaz+%26+Coffee+-+Working+%26+Coffee+Heaven/data=!4m7!3m6!1s0x2e69f370768f1079:0x55103a8cffb51289!8m2!3d-6.2255621!4d106.8550709!16s%2Fg%2F11fkqg_79y!19sChIJeRCPdnDzaS4RiRK1_4w6EFU?authuser=0&hl=id&rclk=1
Kumu Ground,,"Jl. KH Abdullah Syafei Blok A No.31, RT.1/RW.3, Kb. Baru, Kec. Tebet, Jakarta, Daerah Khusus Ibukota Jakarta 12840",Unknown,Unknown,"4,7",Unknown,"Kamis,13.00 hingga 22.00",106.8619532,-6.2253867,https://www.google.com/maps/place/Kumu+Ground/data=!4m7!3m6!1s0x2e69f3a1e98a25ad:0x95cea0ceb275c98c!8m2!3d-6.2253867!4d106.8619532!16s%2Fg%2F11thdk4j2g!19sChIJrSWK6aHzaS4RjMl1ss6gzpU?authuser=0&hl=id&rclk=1
KOPI KAU & DIA TEBET,,"8, Jl. Tebet Dalam II G No.22, RT.8/RW.1, West Tebet, Tebet, South Jakarta City, Jakarta 12810",Unknown,0821-7963-3805,"4,7",Unknown,"Kamis,07.00 hingga 21.00",106.8495666,-6.2269524,https://www.google.com/maps/place/KOPI+KAU+%26+DIA+TEBET/data=!4m7!3m6!1s0x2e69f30da35a8be9:0x61ad8d67f5c72702!8m2!3d-6.2269524!4d106.8495666!16s%2Fg%2F11mvpnng9c!19sChIJ6Ytaow3zaS4RAifH9WeNrWE?authuser=0&hl=id&rclk=1
Warunk Upnormal,,"Jl. KH Abdullah Syafei No.45, RT.4/RW.1, Tebet Tim., Kec. Tebet, Kota Jakarta Selatan, Daerah Khusus Ibukota Jakarta 12820",Unknown,0811-2102-813,"4,4",Unknown,Unknown,106.8574957,-6.2259313,https://www.google.com/maps/place/Warunk+Upnormal/data=!4m7!3m6!1s0x2e69f38f00b20201:0x9005d8e7bfdaab1d!8m2!3d-6.2259313!4d106.8574957!16s%2Fg%2F11bzy7ld5_!19sChIJAQKyAI_zaS4RHavav-fYBZA?authuser=0&hl=id&rclk=1
Oktaf Coffee,,"Jl. Tebet Barat Raya No.20a, RT.7/RW.2, Tebet Bar., Kec. Tebet, Kota Jakarta Selatan, Daerah Khusus Ibukota Jakarta 12810",Unknown,0811-9209-788,"4,0",Unknown,"Kamis,07.30 hingga 01.00",106.8504334,-6.2334134,https://www.google.com/maps/place/Oktaf+Coffee/data=!4m7!3m6!1s0x2e69f3f99c3a54ab:0xa2d67a026c5396c9!8m2!3d-6.2334134!4d106.8504334!16s%2Fg%2F11s3y73vhc!19sChIJq1Q6nPnzaS4RyZZTbAJ61qI?authuser=0&hl=id&rclk=1
Starbucks Soepomo Tebet,,"7, Soepomo, Jl. Prof. DR. Soepomo No.30, RT.7/RW.1, Menteng Dalam, Kec. Tebet, Kota Jakarta Selatan, Daerah Khusus Ibukota Jakarta 12870",Unknown,(021) 22839630,"4,6",Unknown,"Kamis,06.00 hingga 21.00",106.8448342,-6.2331548,https://www.google.com/maps/place/Starbucks+Soepomo+Tebet/data=!4m7!3m6!1s0x2e69f3945c2cb003:0xf70e7bbdb4070aad!8m2!3d-6.2331548!4d106.8448342!16s%2Fg%2F11f4yb5cvr!19sChIJA7AsXJTzaS4RrQoHtL17Dvc?authuser=0&hl=id&rclk=1
Zefa Coffee,,"Jl. Tebet Barat VIII No.42, RT.9/RW.4, Tebet Bar., Kec. Tebet, Kota Jakarta Selatan, Daerah Khusus Ibukota Jakarta 12810",Unknown,0811-9698-171,"4,9",Unknown,"Kamis,07.00 hingga 00.00",106.8496656,-6.2370328,https://www.google.com/maps/place/Zefa+Coffee/data=!4m7!3m6!1s0x2e69f39252f348fb:0xde653940a86e616b!8m2!3d-6.2370328!4d106.8496656!16s%2Fg%2F11s0wjn_vr!19sChIJ-0jzUpLzaS4Ra2FuqEA5Zd4?authuser=0&hl=id&rclk=1
Ben Kopitiam tebet,,"10, Jl. Tebet Barat IX No.1A, RT.7/RW.5, Tebet Bar., Kec. Tebet, Kota Jakarta Selatan, Daerah Khusus Ibukota Jakarta 12810",Unknown,0859-7491-4631,"3,9",Unknown,"Kamis,10.00 hingga 22.00",106.851855,-6.2384,https://www.google.com/maps/place/Ben+Kopitiam+tebet/data=!4m7!3m6!1s0x2e69f36a065e759f:0x50eabdca84be3e50!8m2!3d-6.2384!4d106.851855!16s%2Fg%2F11kgg0lbcc!19sChIJn3VeBmrzaS4RUD6-hMq96lA?authuser=0&hl=id&rclk=1
POLCA COFFEE,Kedai Kopi,"Jl. Tebet Barat Raya No.16 6, RT.6/RW.2, Tebet Bar., Jakarta, Kota Jakarta Selatan, Daerah Khusus Ibukota Jakarta 12810",Unknown,0852-8375-9420,"4,2",Unknown,"Kamis,10.00 hingga 23.00",106.8507923,-6.2327919,https://www.google.com/maps/place/POLCA+COFFEE/data=!4m7!3m6!1s0x2e69f3e3650792cd:0x84394bcef0030a24!8m2!3d-6.2327919!4d106.8507923!16s%2Fg%2F11h995tgpc!19sChIJzZIHZePzaS4RJAoD8M5LOYQ?authuser=0&hl=id&rclk=1
KOPI BENERAN Tebet,Kedai Kopi,"Jl. Asem Baris Raya No.5. RT 7/14, RT.7/RW.14, Kb. Baru, Kec. Tebet, Kota Jakarta Selatan, Daerah Khusus Ibukota Jakarta 12830",Unknown,0857-7625-5546,"4,7",Unknown,"Kamis,10.00 hingga 22.00",106.8601859,-6.2409052,https://www.google.com/maps/place/KOPI+BENERAN+Tebet/data=!4m7!3m6!1s0x2e69f3e2fa34db9d:0x2569e1b5219ec29d!8m2!3d-6.2409052!4d106.8601859!16s%2Fg%2F11pb5nlycb!19sChIJnds0-uLzaS4RncKeIbXhaSU?authuser=0&hl=id&rclk=1
Gokskin Fried Chicken & Coffee Tebet,Restoran Hidangan Ayam,"Jl. Tebet Barat Dalam Raya IX No.52, RT.6/RW.4, Tebet Bar., Kec. Tebet, Kota Jakarta Selatan, Daerah Khusus Ibukota Jakarta 12870",Unknown,0811-1079-095,"4,7",Unknown,"Kamis,08.00 hingga 23.30",106.8485243,-6.238825,https://www.google.com/maps/place/Gokskin+Fried+Chicken+%26+Coffee+Tebet/data=!4m7!3m6!1s0x2e69f3a642a634db:0xfb986f6f3a2d753f!8m2!3d-6.238825!4d106.8485243!16s%2Fg%2F11vsc_64n1!19sChIJ2zSmQqbzaS4RP3UtOm9vmPs?authuser=0&hl=id&rclk=1
Rocketz Cafe,Kafe,"Jl. Tebet Barat VIII No.14 10, RT.10/RW.3, Tebet Bar., Kec. Tebet, Kota Jakarta Selatan, Daerah Khusus Ibukota Jakarta 12810",Unknown,(021) 22323041,"4,4",Unknown,"Kamis,09.00 hingga 20.00",106.8484129,-6.235303,https://www.google.com/maps/place/Rocketz+Cafe/data=!4m7!3m6!1s0x2e69f3caad430c95:0x2d196bcdffa55ec1!8m2!3d-6.235303!4d106.8484129!16s%2Fg%2F11h3ghxf_3!19sChIJlQxDrcrzaS4RwV6l_81rGS0?authuser=0&hl=id&rclk=1
Kopi Titan Resto,Restoran,"Jl. Tebet Timur Dalam II No.3, RT.1/RW.11, Tebet Tim., Kec. Tebet, Kota Jakarta Selatan, Daerah Khusus Ibukota Jakarta 12820",Unknown,Unknown,"4,5",Unknown,"Kamis,10.00 hingga 00.00",106.8557363,-6.231804,https://www.google.com/maps/place/Kopi+Titan+Resto/data=!4m7!3m6!1s0x2e69f32269349323:0x82d07938515af785!8m2!3d-6.231804!4d106.8557363!16s%2Fg%2F11spws8_00!19sChIJI5M0aSLzaS4RhfdaUTh50II?authuser=0&hl=id&rclk=1
Koma (Koffie Mabelas),Kedai Kopi,"Jl. Tebet Barat I No.23, RT.7/RW.2, Tebet Bar., Kec. Tebet, Kota Jakarta Selatan, Daerah Khusus Ibukota Jakarta 12820",Unknown,0812-8865-8535,"4,7",Unknown,"Kamis,11.00 hingga 23.00",106.8492451,-6.2338157,https://www.google.com/maps/place/Koma+%28Koffie+Mabelas%29/data=!4m7!3m6!1s0x2e69f357c86ede51:0x428daa2c4b54d329!8m2!3d-6.2338157!4d106.8492451!16s%2Fg%2F11h94444j3!19sChIJUd5uyFfzaS4RKdNUSyyqjUI?authuser=0&hl=id&rclk=1
East 37 Coffee,Kafe,"Jl. Tebet Timur III No.37 10, RT.10/RW.7, Tebet Tim., Kec. Tebet, Kota Jakarta Selatan, Daerah Khusus Ibukota Jakarta 12820",Unknown,0812-9679-3737,"4,8",Unknown,"Kamis,15.00 hingga 00.00",106.8561805,-6.2377642,https://www.google.com/maps/place/East+37+Coffee/data=!4m7!3m6!1s0x2e69f385f60e5155:0xa9e805b605c27680!8m2!3d-6.2377642!4d106.8561805!16s%2Fg%2F11k6vjrr18!19sChIJVVEO9oXzaS4RgHbCBbYF6Kk?authuser=0&hl=id&rclk=1
D'Bubbles shisha Cafe Tebet,Kafe,"Jl. Tebet Timur Dalam Raya No.31, RT.1/RW.11, Tebet Tim., Kec. Tebet, Kota Jakarta Selatan, Daerah Khusus Ibukota Jakarta 12810",Unknown,0812-9021-8850,"4,3",Unknown,Unknown,106.8559237,-6.2321268,https://www.google.com/maps/place/D%27Bubbles+shisha+Cafe+Tebet/data=!4m7!3m6!1s0x2e69f3bddc260229:0xafc72b3dfe6ff8a0!8m2!3d-6.2321268!4d106.8559237!16s%2Fg%2F11c2kzdgd2!19sChIJKQIm3L3zaS4RoPhv_j0rx68?authuser=0&hl=id&rclk=1
Waroeng Sadjoe,Kafe,"RT.12/RW.3, Tebet Bar., Kec. Tebet, Kota Jakarta Selatan, Daerah Khusus Ibukota Jakarta 12810",Unknown,0878-1175-3838,"4,4",Unknown,"Kamis,10.00 hingga 22.00",106.8444962,-6.2350648,https://www.google.com/maps/place/Waroeng+Sadjoe/data=!4m7!3m6!1s0x2e69f3ec540c7405:0xa91aa6cc0b0c8255!8m2!3d-6.2350648!4d106.8444962!16s%2Fg%2F11s19mfn24!19sChIJBXQMVOzzaS4RVYIMC8ymGqk?authuser=0&hl=id&rclk=1
Cipluk Tebet,Kedai Kopi,"Dalam V, Jl. Tebet Timur Raya No.38, RT.4/RW.5, Tebet Tim., Kec. Tebet, Kota Jakarta Selatan, Daerah Khusus Ibukota Jakarta 12820",Unknown,Unknown,"4,9",Unknown,"Kamis,09.00 hingga 22.00",106.8558766,-6.2324287,https://www.google.com/maps/place/Cipluk+Tebet/data=!4m7!3m6!1s0x2e69f3999b81a45f:0x2b355d55991fb9bf!8m2!3d-6.2324287!4d106.8558766!16s%2Fg%2F11g72bpn91!19sChIJX6SBm5nzaS4Rv7kfmVVdNSs?authuser=0&hl=id&rclk=1
Coffee Kitchen By Me,Kedai Kopi,"4, Jl. Tebet Timur Dalam I No.1, RT.4/RW.4, Tebet Tim., Kec. Tebet, Kota Jakarta Selatan, Daerah Khusus Ibukota Jakarta 12820",Unknown,0878-8584-8411,"5,0",Unknown,"Kamis,Buka 24 jam",106.8536073,-6.2295129,https://www.google.com/maps/place/Coffee+Kitchen+By+Me/data=!4m7!3m6!1s0x2e69f3aa5b0cad57:0x2c35ff844b673203!8m2!3d-6.2295129!4d106.8536073!16s%2Fg%2F11j6hy6kxm!19sChIJV60MW6rzaS4RAzJnS4T_NSw?authuser=0&hl=id&rclk=1
60 Common House,Mal outlet,"3, Jl. Tebet Barat Dalam Raya No.60, RT.5/RW.3, Tebet Bar., Kec. Tebet, Kota Jakarta Selatan, Daerah Khusus Ibukota Jakarta 12810",Unknown,Unknown,"4,6",Unknown,"Kamis,08.00 hingga 22.00",106.8468137,-6.2365283,https://www.google.com/maps/place/60+Common+House/data=!4m7!3m6!1s0x2e69f3b040bf1759:0xc821bf96c31f6c43!8m2!3d-6.2365283!4d106.8468137!16s%2Fg%2F11mttn1s0h!19sChIJWRe_QLDzaS4RQ2wfw5a_Icg?authuser=0&hl=id&rclk=1
Starbucks,Kedai Kopi,"Jl. Letjen M.T. Haryono No.9, RT.11/RW.5, Tebet Bar., Jakarta, Kota Jakarta Selatan, Daerah Khusus Ibukota Jakarta 12810",Unknown,(021) 83790733,"4,5",Unknown,"Kamis,07.00 hingga 22.00",106.848222,-6.243137,https://www.google.com/maps/place/Starbucks/data=!4m7!3m6!1s0x2e69f3bb901cb8df:0x9a4a4f5390991dd5!8m2!3d-6.243137!4d106.848222!16s%2Fg%2F1trlfc9z!19sChIJ37gckLvzaS4R1R2ZkFNPSpo?authuser=0&hl=id&rclk=1
ITUTUH,Restoran Vietnam,"3, Jl. Tebet Raya No.76c, RT.3/RW.3, Tebet Tim., Kec. Tebet, Kota Jakarta Selatan, Daerah Khusus Ibukota Jakarta 12820",Unknown,0895-1514-7999,"4,3",Unknown,"Kamis,10.00 hingga 22.00",106.8562704,-6.228216,https://www.google.com/maps/place/ITUTUH/data=!4m7!3m6!1s0x2e69f357f13cc921:0xc725c2ee8ffe6513!8m2!3d-6.228216!4d106.8562704!16s%2Fg%2F11khsdyd36!19sChIJIck88VfzaS4RE2X-j-7CJcc?authuser=0&hl=id&rclk=1
Point Coffee,Kedai Kopi,"Jl. Tebet Timur Dalam Raya No.29 1, RT.1/RW.8, Tebet Tim., Kec. Tebet, Kota Jakarta Selatan, Daerah Khusus Ibukota Jakarta 12820",Unknown,(021) 1500280,"4,3",Unknown,"Kamis,Buka 24 jam",106.8556437,-6.2403297,https://www.google.com/maps/place/Point+Coffee/data=!4m7!3m6!1s0x2e69f332bceb2701:0xc7a6202da79c0383!8m2!3d-6.2403297!4d106.8556437!16s%2Fg%2F11r4kjcl_1!19sChIJASfrvDLzaS4RgwOcpy0gpsc?authuser=0&hl=id&rclk=1
Sudut Timur Tebet,Restoran,"Jl. Tebet Timur Dalam Raya No.57, RT.1/RW.8, Tebet Tim., Kec. Tebet, Kota Jakarta Selatan, Daerah Khusus Ibukota Jakarta 12820",Unknown,0851-6369-3053,"4,7",Unknown,"Kamis,10.00 hingga 23.00",106.856493,-6.2382,https://www.google.com/maps/place/Sudut+Timur+Tebet/data=!4m7!3m6!1s0x2e69f34417826d31:0xc6e788487d9d8744!8m2!3d-6.2382!4d106.856493!16s%2Fg%2F11vchj7ysv!19sChIJMW2CF0TzaS4RRIedfUiI58Y?authuser=0&hl=id&rclk=1
Nustro - Tebet Skyline,Restoran,"Jl. Prof. DR. Soepomo No.176, RT.1/RW.15, Menteng Dalam, Kec. Tebet, Kota Jakarta Selatan, Daerah Khusus Ibukota Jakarta 12870",Unknown,0822-2422-4714,"4,7",Unknown,"Kamis,08.00 hingga 22.00",106.8460349,-6.2305692,https://www.google.com/maps/place/Nustro+-+Tebet+Skyline/data=!4m7!3m6!1s0x2e69f348293e1ad3:0xeb360c2c015ef668!8m2!3d-6.2305692!4d106.8460349!16s%2Fg%2F11wqr6lchd!19sChIJ0xo-KUjzaS4RaPZeASwMNus?authuser=0&hl=id&rclk=1
Warung Aceh Bang Ari,Kedai Kopi,"Jl. Tebet Barat Dalam V No.1, RT.6/RW.3, Tebet Bar., Kec. Tebet, Kota Jakarta Selatan, Daerah Khusus Ibukota Jakarta 12810",Unknown,0857-7010-5855,"4,3",Unknown,"Kamis,08.00 hingga 03.00",106.8472753,-6.2368891,https://www.google.com/maps/place/Warung+Aceh+Bang+Ari/data=!4m7!3m6!1s0x2e69f349357fe2d1:0x4dcf9251fadaa716!8m2!3d-6.2368891!4d106.8472753!16s%2Fg%2F11s1p0gn2w!19sChIJ0eJ_NUnzaS4RFqfa-lGSz00?authuser=0&hl=id&rclk=1
H! Cups - Stasiun Tebet,Kedai Kopi,"QVF5+M75, RT.1/RW.1, Tebet Tim., Kec. Tebet, Kota Jakarta Selatan, Daerah Khusus Ibukota Jakarta 12820",Unknown,Unknown,"4,4",Unknown,"Kamis,06.00 hingga 22.00",106.8582926,-6.225859,https://www.google.com/maps/place/H!+Cups+-+Stasiun+Tebet/data=!4m7!3m6!1s0x2e69f326cc64a7fb:0xc081595cffe8d6c4!8m2!3d-6.225859!4d106.8582926!16s%2Fg%2F11svsb9kny!19sChIJ-6dkzCbzaS4RxNbo_1xZgcA?authuser=0&hl=id&rclk=1
Tamanteras,Restoran,"Jl. Tebet Timur Raya No.9, RT.1/RW.7, Tebet Tim., Kec. Tebet, Kota Jakarta Selatan, Daerah Khusus Ibukota Jakarta 12820",Unknown,0811-8112-2277,"4,7",Unknown,"Kamis,07.00 hingga 21.00",106.8536681,-6.237361,https://www.google.com/maps/place/Tamanteras/data=!4m7!3m6!1s0x2e69f3d964699f27:0x7d9bafee984b48e7!8m2!3d-6.237361!4d106.8536681!16s%2Fg%2F11hj7s3df3!19sChIJJ59pZNnzaS4R50hLmO6vm30?authuser=0&hl=id&rclk=1
Lyf Coffee tebet timur,Kedai Kopi,"Jl. Tebet Timur Dalam 3L No.1, RT.1/RW.3, Tebet Tim., Kec. Tebet, Kota Jakarta Selatan, Daerah Khusus Ibukota Jakarta 12820",Unknown,0812-9331-7928,"4,5",Unknown,"Kamis,10.00 hingga 21.00",106.8577492,-6.2276189,https://www.google.com/maps/place/Lyf+Coffee+tebet+timur/data=!4m7!3m6!1s0x2e69f33df2285417:0xb0aef0a9e76db7!8m2!3d-6.2276189!4d106.8577492!16s%2Fg%2F11n0k5p8yk!19sChIJF1Qo8j3zaS4Rt23nqfCusAA?authuser=0&hl=id&rclk=1
"Kalaitu Coffee N Brew, Tebet",Kedai Kopi,"Jl. Tebet Timur Dalam Raya No.Dalam 125, RT.5/RW.6, East Tebet, Tebet, South Jakarta City, Jakarta 12820",Unknown,0888-0931-4292,"5,0",Unknown,"Kamis,11.00 hingga 23.00",106.8569029,-6.2383529,"https://www.google.com/maps/place/Kalaitu+Coffee+N+Brew,+Tebet/data=!4m7!3m6!1s0x2e69f3a3b4bb6a47:0x85c030560bf7f43e!8m2!3d-6.2383529!4d106.8569029!16s%2Fg%2F11t1k6r6b9!19sChIJR2q7tKPzaS4RPvT3C1YwwIU?authuser=0&hl=id&rclk=1"
Bright Cafe,Kafe,"Jl. Tebet Barat Dalam X, RT.11/RW.5, Tebet Bar., Kec. Tebet, Kota Jakarta Selatan, Daerah Khusus Ibukota Jakarta 12810",Unknown,Unknown,"4,2",Unknown,"Kamis,07.00 hingga 21.00",106.8524272,-6.2423062,https://www.google.com/maps/place/Bright+Cafe/data=!4m7!3m6!1s0x2e69f3bb7c3d6e93:0xddf81a05f77804c2!8m2!3d-6.2423062!4d106.8524272!16s%2Fg%2F11csrpqbg9!19sChIJk249fLvzaS4RwgR49wUa-N0?authuser=0&hl=id&rclk=1
Kopi Gayo Tebet,Kedai Kopi,"Selatann. Daerah Ibu, Jl. Tebet Timur Dalam Raya Kecamatan No.77, RT.11/RW.7, Tebet Tim., Kec. Tebet, Kota Jakarta Selatan, Daerah Khusus Ibukota Jakarta 12820",Unknown,0812-6091-579,"5,0",Unknown,"Kamis,10.30 hingga 23.30",106.8568453,-6.2366482,https://www.google.com/maps/place/Kopi+Gayo+Tebet/data=!4m7!3m6!1s0x2e69f3f845c233d3:0xdd74d116e646ca9f!8m2!3d-6.2366482!4d106.8568453!16s%2Fg%2F11srjf68gk!19sChIJ0zPCRfjzaS4Rn8pG5hbRdN0?authuser=0&hl=id&rclk=1
Oneway Coffee,Kedai Kopi,"Jl. Tebet Timur Raya No.12 13, RT.13/RW.5, Tebet Tim., Kec. Tebet, Kota Jakarta Selatan, Daerah Khusus Ibukota Jakarta 12820",Unknown,0813-8146-2451,"4,4",Unknown,"Kamis,03.00 hingga 22.00",106.8529886,-6.2326935,https://www.google.com/maps/place/Oneway+Coffee/data=!4m7!3m6!1s0x2e69f3975cc44713:0xb17f2d588626c16c!8m2!3d-6.2326935!4d106.8529886!16s%2Fg%2F11c1lk6c7f!19sChIJE0fEXJfzaS4RbMEmhlgtf7E?authuser=0&hl=id&rclk=1
"KUPINANG Coffee and Eatery, Kemang",Kedai Kopi,"The Habibie Center, Jl. Kemang Sel. No.98, RT.11/RW.4, Cilandak Tim., Ps. Minggu, Kota Jakarta Selatan, Daerah Khusus Ibukota Jakarta 12560",Unknown,0821-1229-9583,"4,1",Unknown,"Kamis,10.00 hingga 02.00",106.8161192,-6.2733569,"https://www.google.com/maps/place/KUPINANG+Coffee+and+Eatery,+Kemang/data=!4m7!3m6!1s0x2e69f12bd587faed:0xdeed7ec035157581!8m2!3d-6.2733569!4d106.8161192!16s%2Fg%2F11s49tq_l9!19sChIJ7fqH1SvxaS4RgXUVNcB-7d4?authuser=0&hl=id&rclk=1"
Anomali Coffee Kemang,Tempat penyangraian kopi,"Jl. Kemang Raya No.72 4, RT.7/RW.2, Bangka, Kec. Mampang Prpt., Kota Jakarta Selatan, Daerah Khusus Ibukota Jakarta 12730",Unknown,(021) 7194742,"4,4",Unknown,"Kamis,07.00 hingga 18.00",106.8155791,-6.2671988,https://www.google.com/maps/place/Anomali+Coffee+Kemang/data=!4m7!3m6!1s0x2e69f187c9c7795f:0x25edaa7fd732dc16!8m2!3d-6.2671988!4d106.8155791!16s%2Fg%2F11h048ll3!19sChIJX3nHyYfxaS4RFtwy13-q7SU?authuser=0&hl=id&rclk=1
JPC Kemang Cafe,Kedai Kopi,"Jl. Kemang Raya No.47C, RT.6/RW.2, Bangka, Kec. Mampang Prpt., Kota Jakarta Selatan, Daerah Khusus Ibukota Jakarta 12730",Unknown,0821-1222-9256,"5,0",Unknown,"Kamis,09.30 hingga 17.30",106.8162685,-6.2651825,https://www.google.com/maps/place/JPC+Kemang+Cafe/data=!4m7!3m6!1s0x2e69f15727ec995f:0xc2e858ce7bda7b4d!8m2!3d-6.2651825!4d106.8162685!16s%2Fg%2F11h2h6kdys!19sChIJX5nsJ1fxaS4RTXvae85Y6MI?authuser=0&hl=id&rclk=1
Feel Matcha - Kemang,Kafe,"Jl. Kemang Timur No.47, RT.9/RW.3, Bangka, Kec. Mampang Prpt., Kota Jakarta Selatan, Daerah Khusus Ibukota Jakarta 12730",Unknown,Unknown,"4,8",Unknown,"Kamis,10.00 hingga 22.00",106.8239792,-6.2655018,https://www.google.com/maps/place/Feel+Matcha+-+Kemang/data=!4m7!3m6!1s0x2e69f306d71d5d6b:0x59a8fe6b49ae0001!8m2!3d-6.2655018!4d106.8239792!16s%2Fg%2F11p617xbt3!19sChIJa10d1wbzaS4RAQCuSWv-qFk?authuser=0&hl=id&rclk=1
ROTI BAKAR KEMANG @ MILOS KEMANG,Kafe,"Milos Padel Kemang - Lavish Park Kemang, Jl. Kemang Raya No.78A, RT.11/RW.2, Bangka, Mampang Prapatan, South Jakarta City, Jakarta 12510",Unknown,0811-878-794,"4,4",Unknown,"Kamis,07.00 hingga 00.00",106.8156219,-6.2662897,https://www.google.com/maps/place/ROTI+BAKAR+KEMANG+@+MILOS+KEMANG/data=!4m7!3m6!1s0x2e69f30e5def8c6b:0x62f05e32e10c921b!8m2!3d-6.2662897!4d106.8156219!16s%2Fg%2F11ddzfmmmp!19sChIJa4zvXQ7zaS4RG5IM4TJe8GI?authuser=0&hl=id&rclk=1
"1/15 Coffee, Kemang",Kafe,"Jl. Kemang Raya No.37, RT.9/RW.1, Bangka, Kec. Mampang Prpt., Kota Jakarta Selatan, Daerah Khusus Ibukota Jakarta 12730",Unknown,0822-1155-0263,"4,5",Unknown,"Kamis,07.00 hingga 21.00",106.8159403,-6.2620766,"https://www.google.com/maps/place/1%2F15+Coffee,+Kemang/data=!4m7!3m6!1s0x2e69f191dc0dde8b:0xcc7253aa4b7d969b!8m2!3d-6.2620766!4d106.8159403!16s%2Fg%2F11f5k2dfvn!19sChIJi94N3JHxaS4Rm5Z9S6pTcsw?authuser=0&hl=id&rclk=1"
Alenia Papua Coffee & Kitchen,Restoran,"Jl. Kemang Raya No.66 B 8, RT.8/RW.2, Bangka, Kec. Mampang Prpt., Kota Jakarta Selatan, Daerah Khusus Ibukota Jakarta 12730",Unknown,(021) 71790141,"4,6",Unknown,"Kamis,10.00 hingga 22.00",106.8158777,-6.2638119,https://www.google.com/maps/place/Alenia+Papua+Coffee+%26+Kitchen/data=!4m7!3m6!1s0x2e69f181153521a9:0xe49807fcfab68b48!8m2!3d-6.2638119!4d106.8158777!16s%2Fg%2F11f2m72ngq!19sChIJqSE1FYHxaS4RSIu2-vwHmOQ?authuser=0&hl=id&rclk=1
Kopi Kemang,Kedai Kopi,"Jl. Kemang Selatan I No.10 6, RT.6/RW.2, Bangka, Kec. Mampang Prpt., Kota Jakarta Selatan, Daerah Khusus Ibukota Jakarta 12730",Unknown,0852-1742-3516,"4,7",Unknown,"Kamis,09.00 hingga 21.00",106.8181095,-6.2650516,https://www.google.com/maps/place/Kopi+Kemang/data=!4m7!3m6!1s0x2e69f2291c5298d5:0x13e8065e5ecab893!8m2!3d-6.2650516!4d106.8181095!16s%2Fg%2F11gfd27l64!19sChIJ1ZhSHCnyaS4Rk7jKXl4G6BM?authuser=0&hl=id&rclk=1
THREE K COFFEE KEMANG,Kafe,"Jalan Kemang Utara No.33, Ruko No.5, RT.3/RW.1, Bangka, Mampang Prapatan, South Jakarta City, Jakarta 12720",Unknown,(021) 7180442,"4,5",Unknown,"Kamis,08.30 hingga 22.00",106.8206579,-6.2573266,https://www.google.com/maps/place/THREE+K+COFFEE+KEMANG/data=!4m7!3m6!1s0x2e69f3d4e0f9b78b:0x586451f1d3f5ade9!8m2!3d-6.2573266!4d106.8206579!16s%2Fg%2F11b8twnw8q!19sChIJi7f54NTzaS4R6a310_FRZFg?authuser=0&hl=id&rclk=1
Antipodean Coffee,Kafe,"komplek hero kemang, Jl. Kemang Selatan I, RT.8/RW.3, Bangka, Kec. Mampang Prpt., Daerah Khusus Ibukota Jakarta 12730",Unknown,(021) 7192364,"4,4",Unknown,"Kamis,08.00 hingga 20.00",106.8204611,-6.265255,https://www.google.com/maps/place/Antipodean+Coffee/data=!4m7!3m6!1s0x2e69f22bcea31151:0x90c13e76e4090c38!8m2!3d-6.265255!4d106.8204611!16s%2Fg%2F11g_f_yby!19sChIJURGjzivyaS4ROAwJ5HY-wZA?authuser=0&hl=id&rclk=1
BAKED. KEMANG,Toko Roti,"Jl. Kemang Utara No.39a, RT.1/RW.4, Bangka, Kec. Mampang Prpt., Kota Jakarta Selatan, Daerah Khusus Ibukota Jakarta 12730",Unknown,0877-8762-7769,"4,5",Unknown,"Kamis,07.00 hingga 21.00",106.821045,-6.2579365,https://www.google.com/maps/place/BAKED.+KEMANG/data=!4m7!3m6!1s0x2e69f3d804549741:0x3d1847031aa75665!8m2!3d-6.2579365!4d106.821045!16s%2Fg%2F11svtmqyv8!19sChIJQZdUBNjzaS4RZVanGgNHGD0?authuser=0&hl=id&rclk=1
DAPOER HOTS,Kedai Kopi,"Jl. Puri Mutiara Raya No.8a, RT.9/RW.11, Kemang, Cilandak Bar., Kec. Cilandak, Kota Jakarta Selatan, Daerah Khusus Ibukota Jakarta 12430",Unknown,0882-1318-9519,"4,8",Unknown,"Kamis,10.00 hingga 23.00",106.8107014,-6.2782522,https://www.google.com/maps/place/DAPOER+HOTS/data=!4m7!3m6!1s0x2e69f1a7fb5c083d:0x6c09ee206f0f75b0!8m2!3d-6.2782522!4d106.8107014!16s%2Fg%2F11rdvpzbjk!19sChIJPQhc-6fxaS4RsHUPbyDuCWw?authuser=0&hl=id&rclk=1
Kopi Kemara,Kedai Kopi,"Jl. Kemang Utara No.33, RT.3/RW.4, Bangka, Kec. Mampang Prpt., Kota Jakarta Selatan, Daerah Khusus Ibukota Jakarta 12730",Unknown,(021) 7192832,"4,5",Unknown,"Kamis,11.00 hingga 22.00",106.8207002,-6.2573027,https://www.google.com/maps/place/Kopi+Kemara/data=!4m7!3m6!1s0x2e69f3831b53fdf3:0xfd825e66d739ea69!8m2!3d-6.2573027!4d106.8207002!16s%2Fg%2F11fnxttbyd!19sChIJ8_1TG4PzaS4Raeo512Zegv0?authuser=0&hl=id&rclk=1
Kiila Kiila Cafe,Kafe,"4 Jalan Kemang Timur Dalam No.9B, RT.4/RW.3, Bangka, Kec. Mampang Prpt., Kota Jakarta Selatan, Daerah Khusus Ibukota Jakarta 12730",Unknown,0819-3373-0303,"4,8",Unknown,"Kamis,08.00 hingga 21.00",106.8217692,-6.2709009,https://www.google.com/maps/place/Kiila+Kiila+Cafe/data=!4m7!3m6!1s0x2e69f3f686ee1ac1:0xc0ca301d27fb6a3!8m2!3d-6.2709009!4d106.8217692!16s%2Fg%2F11frl4xkrb!19sChIJwRruhvbzaS4Ro7Z_0gGjDAw?authuser=0&hl=id&rclk=1
coffeewar,Kedai Kopi,"Jl. Pinang Raya No.3, RT.1/RW.9, Pd. Labu, Kec. Cilandak, Kota Jakarta Selatan, Daerah Khusus Ibukota Jakarta 12450",Unknown,0812-2228-8396,"4,5",Unknown,"Kamis,12.00 hingga 00.00",106.7956883,-6.3085914,https://www.google.com/maps/place/coffeewar/data=!4m7!3m6!1s0x2e69f22f35a8f203:0x3db24dde3a7f17f3!8m2!3d-6.3085914!4d106.7956883!16s%2Fg%2F1typr1g6!19sChIJA_KoNS_yaS4R8xd_Ot5Nsj0?authuser=0&hl=id&rclk=1
Kopi+ Corner,Kedai Kopi,"No. 14E, Jl. Benda Raya Jl. Kemang Raya No.RT.6 6, RT.6/RW.4, Cilandak Tim., Ps. Minggu, Kota Jakarta Selatan, Daerah Khusus Ibukota Jakarta 12560",Unknown,0812-9500-3320,"4,5",Unknown,"Kamis,16.00 hingga 01.00",106.8158111,-6.2774972,https://www.google.com/maps/place/Kopi%2B+Corner/data=!4m7!3m6!1s0x2e69f18ae873d63b:0x8e8dcd89187c0a14!8m2!3d-6.2774972!4d106.8158111!16s%2Fg%2F1ydxpn909!19sChIJO9Zz6IrxaS4RFAp8GInNjY4?authuser=0&hl=id&rclk=1
Bajawa kemang,Kedai Kopi,"Wisma Semeru, Jl. Taman Kemang No.18 Lantai Dasar, RT.14/RW.1, Bangka, Kec. Mampang Prpt., Kota Jakarta Selatan, Daerah Khusus Ibukota Jakarta 12730",Unknown,Unknown,"4,5",Unknown,"Kamis,15.00 hingga 23.30",106.8103293,-6.2559442,https://www.google.com/maps/place/Bajawa+kemang/data=!4m7!3m6!1s0x2e69f1cdbaba16dd:0x604600a2b8ae81f!8m2!3d-6.2559442!4d106.8103293!16s%2Fg%2F11st7dk0sx!19sChIJ3Ra6us3xaS4RH-iKKwpgBAY?authuser=0&hl=id&rclk=1
Shisha Cafe Kemang مطعم عربي / شيشة (مطعم ومقهى شيشة),Restoran Lebanon,"Jl. Kemang Raya No.10, RT.9/RW.1, Bangka, Kec. Mampang Prpt., Kota Jakarta Selatan, Daerah Khusus Ibukota Jakarta 12730",Unknown,(021) 7193587,"4,6",Unknown,"Kamis,10.00 hingga 01.00",106.8146994,-6.2567107,https://www.google.com/maps/place/Shisha+Cafe+Kemang+%D9%85%D8%B7%D8%B9%D9%85+%D8%B9%D8%B1%D8%A8%D9%8A+%2F+%D8%B4%D9%8A%D8%B4%D8%A9+%28%D9%85%D8%B7%D8%B9%D9%85+%D9%88%D9%85%D9%82%D9%87%D9%89+%D8%B4%D9%8A%D8%B4%D8%A9%29%E2%80%AD/data=!4m7!3m6!1s0x2e69f1bf2f82f23f:0x15822db60c1fed2b!8m2!3d-6.2567107!4d106.8146994!16s%2Fg%2F1wrb5wtr!19sChIJP_KCL7_xaS4RK-0fDLYtghU?authuser=0&hl=id&rclk=1
Wangsa Kemang,Kafe,"PRV9+636, Jl. Kemang Utara No.15, RT.013/001/RW.1, Bangka, Kec. Mampang Prpt., Kota Jakarta Selatan, Daerah Khusus Ibukota Jakarta 12730",Unknown,Unknown,"4,2",Unknown,"Kamis,10.00 hingga 23.00",106.8176363,-6.2569713,https://www.google.com/maps/place/Wangsa+Kemang/data=!4m7!3m6!1s0x2e69f3995238c50b:0xdadfa6df9b47ef5!8m2!3d-6.2569713!4d106.8176363!16s%2Fg%2F11s4606qsd!19sChIJC8U4UpnzaS4R9X60-W36rQ0?authuser=0&hl=id&rclk=1
Moreau Chocolatier's Cafe,Kafe,"13, Jl. Kemang Raya No.31, RT.13/RW.1, Bangka, Kec. Mampang Prpt., Kota Jakarta Selatan, Daerah Khusus Ibukota Jakarta 12720",Unknown,(021) 7193638,"4,5",Unknown,Unknown,106.8141637,-6.2552526,https://www.google.com/maps/place/Moreau+Chocolatier%27s+Cafe/data=!4m7!3m6!1s0x2e69f18851890f83:0xb459c23350c846ac!8m2!3d-6.2552526!4d106.8141637!16s%2Fg%2F11c31w_6l1!19sChIJgw-JUYjxaS4RrEbIUDPCWbQ?authuser=0&hl=id&rclk=1
Kopidankamu Kemang,Kedai Kopi,"masjid al ibadah, Jl. Kemang Selatan I C Samping belakang No.20, RT.4/RW.2, Bangka, Kemang, Kota Jakarta Selatan, Daerah Khusus Ibukota Jakarta 12730",Unknown,0851-2332-6946,"5,0",Unknown,"Kamis,08.00 hingga 21.00",106.8174472,-6.2673002,https://www.google.com/maps/place/Kopidankamu+Kemang/data=!4m7!3m6!1s0x2e69f11d1299e207:0x88b1921d42a44b42!8m2!3d-6.2673002!4d106.8174472!16s%2Fg%2F11zjw9vdnk!19sChIJB-KZEh3xaS4RQkukQh2SsYg?authuser=0&hl=id&rclk=1
Sable Cafe,Kafe,"Jl. Kemang Raya No.84A, RT.10/RW.2, Bangka, Kec. Mampang Prpt., Jakarta, Daerah Khusus Ibukota Jakarta 12730",Unknown,0819-1681-6898,"4,9",Unknown,"Kamis,09.00 hingga 22.00",106.8153716,-6.2698905,https://www.google.com/maps/place/Sable+Cafe/data=!4m7!3m6!1s0x2e69f10e7ed4f5f5:0x1cf4262410fa2b51!8m2!3d-6.2698905!4d106.8153716!16s%2Fg%2F11vkqpzlk9!19sChIJ9fXUfg7xaS4RUSv6ECQm9Bw?authuser=0&hl=id&rclk=1
Little Contrast Kemang,Kedai Kopi,"Ruko Belle Point, JI, Jl. Kemang Selatan VI No.55, RT.7/RW.2, Bangka, Kec. Mampang Prpt., Daerah Khusus Ibukota Jakarta 12730",Unknown,0856-5976-4864,"4,9",Unknown,"Kamis,07.00 hingga 20.00",106.8146317,-6.2674009,https://www.google.com/maps/place/Little+Contrast+Kemang/data=!4m7!3m6!1s0x2e69f107a9ba353f:0xd5f5269ba27cd7e9!8m2!3d-6.2674009!4d106.8146317!16s%2Fg%2F11l1yql0hv!19sChIJPzW6qQfxaS4R6dd8opsm9dU?authuser=0&hl=id&rclk=1
Kopi renjana kemang,Kedai Kopi,"Jl. Kemang Utara No.14 B, RT.6/RW.1, Bangka, Kec. Mampang Prpt., Kota Jakarta Selatan, Daerah Khusus Ibukota Jakarta 12730",Unknown,Unknown,"4,9",Unknown,"Kamis,08.00 hingga 00.00",106.8178666,-6.25717,https://www.google.com/maps/place/Kopi+renjana+kemang/data=!4m7!3m6!1s0x2e69f3006b879e4d:0xb3f9fc5621cce7b9!8m2!3d-6.25717!4d106.8178666!16s%2Fg%2F11vr2g1gcd!19sChIJTZ6HawDzaS4RuefMIVb8-bM?authuser=0&hl=id&rclk=1
Titik Koma Kemang Selatan,Kedai Kopi,"7, Jl. Pelita Abdul Majid No.102, RT.7/RW.2, Cipete Sel., Kec. Cilandak, Kota Jakarta Selatan, Daerah Khusus Ibukota Jakarta 12410",Unknown,0878-0003-2999,"4,8",Unknown,"Kamis,07.00 hingga 00.00",106.8110426,-6.266709,https://www.google.com/maps/place/Titik+Koma+Kemang+Selatan/data=!4m7!3m6!1s0x2e69f1f9a78fc809:0x116ac73bcf36cf1!8m2!3d-6.266709!4d106.8110426!16s%2Fg%2F11s1s2_7yx!19sChIJCciPp_nxaS4R8WzzvHOsFgE?authuser=0&hl=id&rclk=1
Toko Kopi Manusia - Kemang,Kedai Kopi,"Jl. Kemang Timur No.90c, RT.14, Pejaten Bar., Ps. Minggu, Kota Jakarta Selatan, Daerah Khusus Ibukota Jakarta 12510",Unknown,Unknown,"4,9",Unknown,"Kamis,07.00 hingga 02.00",106.8237177,-6.2709091,https://www.google.com/maps/place/Toko+Kopi+Manusia+-+Kemang/data=!4m7!3m6!1s0x2e69f38149c77b87:0xa0ac1b141724bffc!8m2!3d-6.2709091!4d106.8237177!16s%2Fg%2F11x_qqwn2j!19sChIJh3vHSYHzaS4R_L8kFxQbrKA?authuser=0&hl=id&rclk=1
Kopi Cat Cafe by Groovy - Kemang,Kafe kucing,"Jl. Kemang Selatan VIII No.63A-B, RT.7/RW.2, Bangka, Kec. Mampang Prpt., Kota Jakarta Selatan, Daerah Khusus Ibukota Jakarta 12730",Unknown,0811-1000-8809,"4,8",Unknown,"Kamis,09.00 hingga 21.00",106.8143343,-6.2672572,https://www.google.com/maps/place/Kopi+Cat+Cafe+by+Groovy+-+Kemang/data=!4m7!3m6!1s0x2e69f198358063ff:0x3b9e3c6c4353a215!8m2!3d-6.2672572!4d106.8143343!16s%2Fg%2F11f7dt3_nv!19sChIJ_2OANZjxaS4RFaJTQ2w8njs?authuser=0&hl=id&rclk=1
K&C.co,Restoran,"Jl. Kemang Raya No.76-79, RT.2/RW.2, Kemang, Bangka, Kec. Mampang Prpt., Kota Jakarta Selatan, Daerah Khusus Ibukota Jakarta 12730",Unknown,0813-9009-0574,"4,7",Unknown,"Kamis,11.00 hingga 22.00",106.8153146,-6.2685866,https://www.google.com/maps/place/K%26C.co/data=!4m7!3m6!1s0x2e69f1555a639ed9:0x2237b8a4ad14b5d5!8m2!3d-6.2685866!4d106.8153146!16s%2Fg%2F11r_w67ss8!19sChIJ2Z5jWlXxaS4R1bUUraS4NyI?authuser=0&hl=id&rclk=1
Rona Coffee Kemang,Kedai Kopi,"Jl. Kemang Timur No.21A, RT.4/RW.3, Bangka, Kec. Mampang Prpt., Kota Jakarta Selatan, Daerah Khusus Ibukota Jakarta 12730",Unknown,0821-1425-3770,"5,0",Unknown,"Kamis,10.00 hingga 22.00",106.8214026,-6.2721669,https://www.google.com/maps/place/Rona+Coffee+Kemang/data=!4m7!3m6!1s0x2e69f31c1f3ffcb1:0x50de17401ebdddc6!8m2!3d-6.2721669!4d106.8214026!16s%2Fg%2F11wj9bw836!19sChIJsfw_HxzzaS4Rxt29HkAX3lA?authuser=0&hl=id&rclk=1
BRWS COFFEE,Kedai Kopi,"Jl. Raya Cirendeu No.58, Cireundeu, Kec. Ciputat Tim., Kota Tangerang Selatan, Banten 15419",Unknown,0812-8972-3928,"4,8",Unknown,"Kamis,08.00 hingga 23.00",106.7727827,-6.3051193,https://www.google.com/maps/place/BRWS+COFFEE/data=!4m7!3m6!1s0x2e69f188c38c37e7:0x5af5eec393bda9f5!8m2!3d-6.3051193!4d106.7727827!16s%2Fg%2F11rsl577pk!19sChIJ5zeMw4jxaS4R9am9k8Pu9Vo?authuser=0&hl=id&rclk=1
Flash Coffee - Shell Kemang Raya,Kafe,"Shell Kemang Raya Jl. Kemang Raya No.33A, RT.6/RW.1, Bangka, Kec. Mampang Prpt., Kota Jakarta Selatan, Daerah Khusus Ibukota Jakarta 12730",Unknown,0811-1903-5045,"4,5",Unknown,"Kamis,06.00 hingga 22.00",106.8158646,-6.2607667,https://www.google.com/maps/place/Flash+Coffee+-+Shell+Kemang+Raya/data=!4m7!3m6!1s0x2e69f15a9c8717d9:0xe3a26ed33cca7cff!8m2!3d-6.2607667!4d106.8158646!16s%2Fg%2F11p5pgqnl0!19sChIJ2ReHnFrxaS4R_3zKPNNuouM?authuser=0&hl=id&rclk=1
Fore Coffee - Kemang,Kafe,"PRR8+434, Jl. Kemang Raya No.20A, RT.11/RW.5, Bangka, Kec. Mampang Prpt., Kota Jakarta Selatan, Daerah Khusus Ibukota Jakarta 12730",Unknown,0812-1111-8456,"4,4",Unknown,"Kamis,07.00 hingga 23.00",106.815217,-6.2597328,https://www.google.com/maps/place/Fore+Coffee+-+Kemang/data=!4m7!3m6!1s0x2e69f1eacf32951f:0xe6cf155fb7c1bf8a!8m2!3d-6.2597328!4d106.815217!16s%2Fg%2F11wx5q91pk!19sChIJH5Uyz-rxaS4Rir_Bt18Vz-Y?authuser=0&hl=id&rclk=1
Langit Seduh Selatan,Restoran,"Jl. Ampera Raya Jl. Kemang Sel. No.5, RT.1/RW.8, Cilandak Tim., Ps. Minggu, Kota Jakarta Selatan, Daerah Khusus Ibukota Jakarta 12560",Unknown,0821-2394-0030,"4,4",Unknown,"Kamis,10.00 hingga 23.00",106.8212439,-6.2747352,https://www.google.com/maps/place/Langit+Seduh+Selatan/data=!4m7!3m6!1s0x2e69f3b6e09c00fb:0xce85f06313e60ea9!8m2!3d-6.2747352!4d106.8212439!16s%2Fg%2F11qn5n6sxr!19sChIJ-wCc4LbzaS4RqQ7mE2Pwhc4?authuser=0&hl=id&rclk=1
Batavia Coffee & Nuts,Kedai Kopi,"Kinara Building, Jl. Kemang Raya No.78B, RT.2/RW.2, Kemang, Bangka, Kec. Mampang Prpt., Jakarta, Daerah Khusus Ibukota Jakarta 12730",Unknown,0817-5101-688,"4,8",Unknown,"Kamis,11.00 hingga 22.00",106.815773,-6.2690691,https://www.google.com/maps/place/Batavia+Coffee+%26+Nuts/data=!4m7!3m6!1s0x2e69f15061cf533f:0xf55e8c864693ec23!8m2!3d-6.2690691!4d106.815773!16s%2Fg%2F11h4n9tc8g!19sChIJP1PPYVDxaS4RI-yTRoaMXvU?authuser=0&hl=id&rclk=1
Kopi Tarik Kemang,Kafe,"Jalan Kemang Raya 11 No.105A, RT.1/RW.3, Bangka, Kec. Mampang Prpt., Kota Jakarta Selatan, Daerah Khusus Ibukota Jakarta 12730",Unknown,0898-8369-245,"4,6",Unknown,"Kamis,13.00 hingga 23.00",106.8188486,-6.2730761,https://www.google.com/maps/place/Kopi+Tarik+Kemang/data=!4m7!3m6!1s0x2e69f3954a1856df:0xd500d57eb6e41ac3!8m2!3d-6.2730761!4d106.8188486!16s%2Fg%2F11fst6hk21!19sChIJ31YYSpXzaS4Rwxrktn7VANU?authuser=0&hl=id&rclk=1
Beranda Kemang,Kedai Kopi,"Jl. Benda Raya No.35, RT.8/RW.4, Cilandak Tim., Ps. Minggu, Kota Jakarta Selatan, Daerah Khusus Ibukota Jakarta 12560",Unknown,0822-8119-4785,"5,0",Unknown,"Kamis,09.00 hingga 01.00",106.8159526,-6.2788644,https://www.google.com/maps/place/Beranda+Kemang/data=!4m7!3m6!1s0x2e69f1003d111017:0x6b864909b2e586b4!8m2!3d-6.2788644!4d106.8159526!16s%2Fg%2F11n405cp6t!19sChIJFxARPQDxaS4RtIblsglJhms?authuser=0&hl=id&rclk=1
TOMORO COFFEE - Kemang Raya,Kedai Kopi,"Jl. Kemang Raya.69D 4, RT.4/RW.2, Bangka, Kec. Mampang Prpt., Kota Jakarta Selata, RT.4/RW.2, Bangka, Kec. Mampang Prpt., Kota Jakarta Selatan, Daerah Khusus Ibukota Jakarta 12730",Unknown,0821-2440-0651,"4,6",Unknown,"Kamis,07.00 hingga 22.00",106.8159657,-6.2671441,https://www.google.com/maps/place/TOMORO+COFFEE+-+Kemang+Raya/data=!4m7!3m6!1s0x2e69f1005a59e11d:0x5a3d31d6c228c9b7!8m2!3d-6.2671441!4d106.8159657!16s%2Fg%2F11x32sb_p4!19sChIJHeFZWgDxaS4Rt8kowtYxPVo?authuser=0&hl=id&rclk=1
Art Cafe Jakarta,Kafe seni,"Gedung PROMENADE 20, Jl. Bangka Raya Jl. Kemang Raya No.20, RT.11/RW.3, Pela Mampang, Mampang Prapatan, South Jakarta City, Jakarta 12730",Unknown,0818-861-918,"4,7",Unknown,"Kamis,08.00 hingga 17.00",106.8145554,-6.2535354,https://www.google.com/maps/place/Art+Cafe+Jakarta/data=!4m7!3m6!1s0x2e69f1642785edfd:0xdfdceee32056072e!8m2!3d-6.2535354!4d106.8145554!16s%2Fg%2F11r3vlnq90!19sChIJ_e2FJ2TxaS4RLgdWIOPu3N8?authuser=0&hl=id&rclk=1
Kopi Kenangan - La Codefin Kemang,Kedai Kopi,"La Codefin, Jl. Kemang I No.3-5 Kemang, GF, RT.11/RW.1, Bangka, Kec. Mampang Prpt., Kota Jakarta Selatan, Daerah Khusus Ibukota Jakarta 12780",Unknown,0878-8874-1954,"4,6",Unknown,"Kamis,07.00 hingga 22.00",106.8130422,-6.2564319,https://www.google.com/maps/place/Kopi+Kenangan+-+La+Codefin+Kemang/data=!4m7!3m6!1s0x2e69f1082b5aff7b:0xdd0adf0be747a558!8m2!3d-6.2564319!4d106.8130422!16s%2Fg%2F11hzwy_1l3!19sChIJe_9aKwjxaS4RWKVH5wvfCt0?authuser=0&hl=id&rclk=1
Mokka Coffee Cabana - Kemang,Kedai Kopi,"Lippo Mall, Jl. Kemang Raya Lt. GF, RT.12/RW.5, Bangka, Kec. Mampang Prpt., Kota Jakarta Selatan, Daerah Khusus Ibukota Jakarta 12730",Unknown,0817-212-155,"4,5",Unknown,"Kamis,10.00 hingga 22.00",106.8128157,-6.2613806,https://www.google.com/maps/place/Mokka+Coffee+Cabana+-+Kemang/data=!4m7!3m6!1s0x2e69f3751a01c35b:0x5dd6c84cfbbd9d32!8m2!3d-6.2613806!4d106.8128157!16s%2Fg%2F11h3tg_fx5!19sChIJW8MBGnXzaS4RMp29-0zI1l0?authuser=0&hl=id&rclk=1
Dhikaffein,Kedai Kopi,"dhikaffein, Jl. Kemang Utara No.17 6, RT.2/RW.4, Bangka, Kec. Mampang Prpt., Kota Jakarta Selatan, Daerah Khusus Ibukota Jakarta 12730",Unknown,0812-9758-5173,"4,8",Unknown,"Kamis,10.00 hingga 00.00",106.8154771,-6.257576,https://www.google.com/maps/place/Dhikaffein/data=!4m7!3m6!1s0x2e69f18777172e5f:0xced7b767d05c4fa!8m2!3d-6.257576!4d106.8154771!16s%2Fg%2F11fltn3pbk!19sChIJXy4Xd4fxaS4R-sQFfXZ77Qw?authuser=0&hl=id&rclk=1
Kopi Sakti,Kedai Kopi,"Jalan Kemang Timur Raya No 29 Bangka Mampang Prapatan, Kec. Cilandak, Kota Jakarta Selatan, Daerah Khusus Ibukota Jakarta 12730",Unknown,0896-9921-5243,"4,7",Unknown,"Kamis,09.00 hingga 21.00",106.8230317,-6.2592945,https://www.google.com/maps/place/Kopi+Sakti/data=!4m7!3m6!1s0x2e69f18e8bca2ec9:0xb11a6f5b9d95a5d4!8m2!3d-6.2592945!4d106.8230317!16s%2Fg%2F11hbg8jzrs!19sChIJyS7Ki47xaS4R1KWVnVtvGrE?authuser=0&hl=id&rclk=1
Monochrome Coffee Roastery,Kafe,"Bangka, Kec. Mampang Prpt., Kota Jakarta Selatan, Daerah Khusus Ibukota Jakarta",Unknown,0811-164-850,"4,4",Unknown,"Kamis,07.00 hingga 22.00",106.8122407,-6.2604014,https://www.google.com/maps/place/Monochrome+Coffee+Roastery/data=!4m7!3m6!1s0x2e69f18189348263:0x791ffcaf1b103544!8m2!3d-6.2604014!4d106.8122407!16s%2Fg%2F11hhyx3bqs!19sChIJY4I0iYHxaS4RRDUQG6_8H3k?authuser=0&hl=id&rclk=1
Living-Room Coffeehouse Jakarta,Kedai Kopi,"Jl. Kemang Raya No.49E, RT.6/RW.2, Bangka, Kec. Mampang Prpt., Kota Jakarta Selatan, Daerah Khusus Ibukota Jakarta 12730",Unknown,0899-5245-166,"4,4",Unknown,"Kamis,10.00 hingga 22.00",106.8162684,-6.2655445,https://www.google.com/maps/place/Living-Room+Coffeehouse+Jakarta/data=!4m7!3m6!1s0x2e69f124b1511637:0x9fa0a4f3fb76b231!8m2!3d-6.2655445!4d106.8162684!16s%2Fg%2F11j742831m!19sChIJNxZRsSTxaS4RMbJ2-_OkoJ8?authuser=0&hl=id&rclk=1
Turere Cafe Kemang,Kafe,"Jl. Taman Kemang No.20, RT.14/RW.1, Bangka, Kec. Mampang Prpt., Kota Jakarta Selatan, Daerah Khusus Ibukota Jakarta 12730",Unknown,0852-1749-4920,"4,8",Unknown,"Kamis,09.00 hingga 22.00",106.8103534,-6.2561734,https://www.google.com/maps/place/Turere+Cafe+Kemang/data=!4m7!3m6!1s0x2e69f149c5af4085:0xc7474c0894056f74!8m2!3d-6.2561734!4d106.8103534!16s%2Fg%2F11kr6_8w1t!19sChIJhUCvxUnxaS4RdG8FlAhMR8c?authuser=0&hl=id&rclk=1
Tempesta coffee spirit,Kedai Kopi,"Jl. Kemang Raya No.1 4, RT.4/RW.1, Bangka, Kec. Mampang Prpt., Kota Jakarta Selatan, Daerah Khusus Ibukota Jakarta 12730",Unknown,0896-6410-8200,"4,7",Unknown,"Kamis,11.00 hingga 23.00",106.8148868,-6.2555608,https://www.google.com/maps/place/Tempesta+coffee+spirit/data=!4m7!3m6!1s0x2e69f100e5aa635f:0xe98d281a0d537f82!8m2!3d-6.2555608!4d106.8148868!16s%2Fg%2F11mqc98db_!19sChIJX2Oq5QDxaS4Rgn9TDRoojek?authuser=0&hl=id&rclk=1
Sulthan Concept Jakarta,Kafe,"Jl. Benda Raya No.54J, RT.11/RW.4, Cilandak Tim., Ps. Minggu, Kota Jakarta Selatan, Daerah Khusus Ibukota Jakarta 12560",Unknown,0818-1818-4476,"4,7",Unknown,Unknown,106.8158899,-6.2778316,https://www.google.com/maps/place/Sulthan+Concept+Jakarta/data=!4m7!3m6!1s0x2e69f1b1f17278b1:0x5bd366f017e1992c!8m2!3d-6.2778316!4d106.8158899!16s%2Fg%2F11h4y5rq0g!19sChIJsXhy8bHxaS4RLJnhF_Bm01s?authuser=0&hl=id&rclk=1
Mardin Fine Baklava Cafe - Kemang,Restoran Mediterania,"Jl. Kemang Utara No.16B1, RT.6/RW.1, Bangka, Kec. Mampang Prpt., Kota Jakarta Selatan, Daerah Khusus Ibukota Jakarta 12730",Unknown,0811-8844-116,"4,8",Unknown,"Kamis,12.00 hingga 22.00",106.8182059,-6.2571943,https://www.google.com/maps/place/Mardin+Fine+Baklava+Cafe+-+Kemang/data=!4m7!3m6!1s0x2e69f3ed228927cf:0xf1b8a6f4f5ec9e41!8m2!3d-6.2571943!4d106.8182059!16s%2Fg%2F11m8139ydf!19sChIJzyeJIu3zaS4RQZ7s9fSmuPE?authuser=0&hl=id&rclk=1
AMOIBE coffee and friends,Kafe,"Jl. Kemang Timur No.90C 14, RT.14/RW.14, Bangka, Kec. Mampang Prpt., Kota Jakarta Selatan, Daerah Khusus Ibukota Jakarta 12730",Unknown,Unknown,"4,6",Unknown,"Kamis,09.00 hingga 21.00",106.8237177,-6.2709091,https://www.google.com/maps/place/AMOIBE+coffee+and+friends/data=!4m7!3m6!1s0x2e69f35ec215577b:0x6a9ac1178dc97bcc!8m2!3d-6.2709091!4d106.8237177!16s%2Fg%2F11h02jlsbb!19sChIJe1cVwl7zaS4RzHvJjRfBmmo?authuser=0&hl=id&rclk=1
Kampoeng Kopi Kemang,Kedai Kopi,"6, Jl. Kemang Selatan I No.36, RT.6/RW.2, Bangka, Kec. Mampang Prpt., Kota Jakarta Selatan, Daerah Khusus Ibukota Jakarta 12730",Unknown,Unknown,"4,5",Unknown,"Kamis,14.00 hingga 22.00",106.8204763,-6.2656758,https://www.google.com/maps/place/Kampoeng+Kopi+Kemang/data=!4m7!3m6!1s0x2e69f32de042dc2b:0xcbba110608d2a0df!8m2!3d-6.2656758!4d106.8204763!16s%2Fg%2F11t5yvmqmk!19sChIJK9xC4C3zaS4R36DSCAYRuss?authuser=0&hl=id&rclk=1
Fourteen oz by Sedulur,Kedai Kopi,"Jl. Kemang Timur No.54, RT.6/RW.3, Bangka, Kec. Mampang Prpt., Kota Jakarta Selatan, Daerah Khusus Ibukota Jakarta 12730",Unknown,0823-2941-4853,"4,7",Unknown,"Kamis,15.00 hingga 01.00",106.8238292,-6.2690506,https://www.google.com/maps/place/Fourteen+oz+by+Sedulur/data=!4m7!3m6!1s0x2e69f30b50c86deb:0x4205961790559b69!8m2!3d-6.2690506!4d106.8238292!16s%2Fg%2F11r9vwqn5p!19sChIJ623IUAvzaS4RaZtVkBeWBUI?authuser=0&hl=id&rclk=1
The People's Cafe Kemang Village,Restoran,"Lobby Avenue, Jl. Pangeran Antasari No.36 Ground Floor, RT.1/RW.6, Bangka, Kec. Mampang Prpt., Kota Jakarta Selatan, Daerah Khusus Ibukota Jakarta 12430",Unknown,0811-1705-7562,"4,8",Unknown,"Kamis,09.00 hingga 22.00",106.8123802,-6.2611304,https://www.google.com/maps/place/The+People%27s+Cafe+Kemang+Village/data=!4m7!3m6!1s0x2e69f108d1c68727:0x787852b7e1229cad!8m2!3d-6.2611304!4d106.8123802!16s%2Fg%2F11lmhhxf79!19sChIJJ4fG0QjxaS4RrZwi4bdSeHg?authuser=0&hl=id&rclk=1
Tree House Kemang,Kedai Kopi,"Jl. Kemang I No.72 10, RT.10/RW.1, Bangka, Kec. Mampang Prpt., Kota Jakarta Selatan, Daerah Khusus Ibukota Jakarta 12730",Unknown,Unknown,"4,6",Unknown,Unknown,106.8129289,-6.2571336,https://www.google.com/maps/place/Tree+House+Kemang/data=!4m7!3m6!1s0x2e69f187a6e11bc9:0xe67c6204bde65149!8m2!3d-6.2571336!4d106.8129289!16s%2Fg%2F1tgd8t_m!19sChIJyRvhpofxaS4RSVHmvQRifOY?authuser=0&hl=id&rclk=1
Segafredo Caffè Kemang Village,Kedai Kopi,"Jl. Pangeran Antasari No.36, RT.11/RW.5, Bangka, Kec. Mampang Prpt., Kota Jakarta Selatan, Daerah Khusus Ibukota Jakarta 12150",Unknown,0821-1331-3350,"4,9",Unknown,"Kamis,10.00 hingga 22.00",106.8122032,-6.2607702,https://www.google.com/maps/place/Segafredo+Caff%C3%A8+Kemang+Village/data=!4m7!3m6!1s0x2e69f18186cba8d7:0xa529f569c3b0edfe!8m2!3d-6.2607702!4d106.8122032!16s%2Fg%2F11gr6k975x!19sChIJ16jLhoHxaS4R_u2ww2n1KaU?authuser=0&hl=id&rclk=1
MELROSE,Kedai Kopi,"Jl. Kemang I No.12 D, RT.11/RW.5, Bangka, Kec. Mampang Prpt., Kota Jakarta Selatan, Daerah Khusus Ibukota Jakarta 12730",Unknown,0818-170-623,"4,5",Unknown,"Kamis,12.00 hingga 20.00",106.8136895,-6.260437,https://www.google.com/maps/place/MELROSE/data=!4m7!3m6!1s0x2e69f373dd305c55:0x5fa4ac607134637f!8m2!3d-6.260437!4d106.8136895!16s%2Fg%2F11sv4kg4c3!19sChIJVVww3XPzaS4Rf2M0cWCspF8?authuser=0&hl=id&rclk=1
Kopifren Kemang,Kedai Kopi,"Jl. Kemang Utara No.16 6, RT.6/RW.1, Bangka, Kec. Mampang Prpt., Kota Jakarta Selatan, Daerah Khusus Ibukota Jakarta 12730",Unknown,Unknown,"5,0",Unknown,"Kamis,10.00 hingga 22.00",106.8180403,-6.2572521,https://www.google.com/maps/place/Kopifren+Kemang/data=!4m7!3m6!1s0x2e69f3e744e887cf:0x1724d21d02ea6b7a!8m2!3d-6.2572521!4d106.8180403!16s%2Fg%2F11j8lyf4np!19sChIJz4foROfzaS4RemvqAh3SJBc?authuser=0&hl=id&rclk=1
Bagi Kopi Kemang Utara,Kedai Kopi,"Jl. Bangka II No.16D, Pela Mampang, Kec. Mampang Prpt., Kota Jakarta Selatan, Daerah Khusus Ibukota Jakarta 12720",Unknown,0812-8845-9841,"4,6",Unknown,"Kamis,07.00 hingga 23.30",106.8202382,-6.2430435,https://www.google.com/maps/place/Bagi+Kopi+Kemang+Utara/data=!4m7!3m6!1s0x2e69f392c00d6b45:0x284a6d4b28da6651!8m2!3d-6.2430435!4d106.8202382!16s%2Fg%2F11sjp8d9zf!19sChIJRWsNwJLzaS4RUWbaKEttSig?authuser=0&hl=id&rclk=1
dia.lo.gue,Pusat Kesenian,"Jl. Kemang Sel. No.99A, RT.1/RW.2, Bangka, Kec. Mampang Prpt., Kota Jakarta Selatan, Daerah Khusus Ibukota Jakarta 12730",Unknown,(021) 7199671,"4,5",Unknown,"Kamis,11.00 hingga 20.00",106.8163409,-6.2729092,https://www.google.com/maps/place/dia.lo.gue/data=!4m7!3m6!1s0x2e69f18992e91da9:0x3b3883c78db6be91!8m2!3d-6.2729092!4d106.8163409!16s%2Fg%2F1ygvswk89!19sChIJqR3pkonxaS4Rkb62jceDODs?authuser=0&hl=id&rclk=1
Foresthree Coffee Kemang,Kedai Kopi,"Jl. Benda Raya No.9, RT.5/RW.4, Cilandak Tim., Ps. Minggu, Kota Jakarta Selatan, Daerah Khusus Ibukota Jakarta 12560",Unknown,0821-8000-4456,"5,0",Unknown,"Kamis,09.00 hingga 21.00",106.8162194,-6.2752518,https://www.google.com/maps/place/Foresthree+Coffee+Kemang/data=!4m7!3m6!1s0x2e69f1b5dbfe35a3:0x92658943fe9fa12a!8m2!3d-6.2752518!4d106.8162194!16s%2Fg%2F11l2pj2q1m!19sChIJozX-27XxaS4RKqGf_kOJZZI?authuser=0&hl=id&rclk=1
Saktah kopi Kemang,Kedai Kopi,"PRQ8+38C, Jl. Kemang Selatan VIII, RT.12/RW.2, Bangka, Kec. Mampang Prpt., Kota Jakarta Selatan, Daerah Khusus Ibukota Jakarta 12730",Unknown,0895-2972-7146,"5,0",Unknown,"Kamis,17.00 hingga 00.00",106.8157653,-6.2622919,https://www.google.com/maps/place/Saktah+kopi+Kemang/data=!4m7!3m6!1s0x2e69f100462eb5c3:0x99a052a184d9da2f!8m2!3d-6.2622919!4d106.8157653!16s%2Fg%2F11mdfz762s!19sChIJw7UuRgDxaS4RL9rZhKFSoJk?authuser=0&hl=id&rclk=1
Lawson Kemang Mansion,Kedai Kopi,"The Mansion at Kemang, GF Unit 8-9, Jl. Kemang Raya No.3-5, RT.1/RW.7, Bangka, Mampang Prapatan, South Jakarta City, Jakarta 12730",Unknown,Unknown,"4,4",Unknown,"Kamis,08.00 hingga 22.00",106.8101991,-6.2550129,https://www.google.com/maps/place/Lawson+Kemang+Mansion/data=!4m7!3m6!1s0x2e69f188088d4849:0x8ed4346f19c59453!8m2!3d-6.2550129!4d106.8101991!16s%2Fg%2F11vjgd8r86!19sChIJSUiNCIjxaS4RU5TFGW801I4?authuser=0&hl=id&rclk=1
Koultoura Kemang,Kedai Kopi,"Jl. Kemang I No.10A-B, RT.10/RW.1, Bangka, Kec. Mampang Prpt., Kota Jakarta Selatan, Daerah Khusus Ibukota Jakarta 12730",Unknown,0817-0575-815,"4,5",Unknown,Unknown,106.8131831,-6.2575089,https://www.google.com/maps/place/Koultoura+Kemang/data=!4m7!3m6!1s0x2e69f1003c24b50d:0xf911a77d86b7f70c!8m2!3d-6.2575089!4d106.8131831!16s%2Fg%2F11wy75cm_h!19sChIJDbUkPADxaS4RDPe3hn2nEfk?authuser=0&hl=id&rclk=1
PITCH STOP CAFE KEMANG,Kedai Kopi,"Jl. Kemang Sel. No.98a, RT.5/RW.4, Cilandak Tim., Ps. Minggu, Kota Jakarta Selatan, Daerah Khusus Ibukota Jakarta 12730",Unknown,0851-7108-8778,"4,5",Unknown,Unknown,106.8164758,-6.2734731,https://www.google.com/maps/place/PITCH+STOP+CAFE+KEMANG/data=!4m7!3m6!1s0x2e69f192f93df5f5:0xfb96e5274dda6e16!8m2!3d-6.2734731!4d106.8164758!16s%2Fg%2F11rkm_jypc!19sChIJ9fU9-ZLxaS4RFm7aTSfllvs?authuser=0&hl=id&rclk=1
PapaBro Cafe,Kafe,"Jl. Pangeran Antasari No.36 1, RT.1/RW.6, Cipete Utara, Kec. Kby. Baru, Kota Jakarta Selatan, Daerah Khusus Ibukota Jakarta 12150",Unknown,(021) 29721188,"4,6",Unknown,"Kamis,08.00 hingga 22.00",106.8082252,-6.2576885,https://www.google.com/maps/place/PapaBro+Cafe/data=!4m7!3m6!1s0x2e69f1167b8fa5ed:0x75c297902c22b084!8m2!3d-6.2576885!4d106.8082252!16s%2Fg%2F11gzqqd2ld!19sChIJ7aWPexbxaS4RhLAiLJCXwnU?authuser=0&hl=id&rclk=1
Sophie Authentique,Toko Roti,"Jl. Kemang Raya No.55 4, RT.4/RW.2, Bangka, Kec. Mampang Prpt., Kota Jakarta Selatan, Daerah Khusus Ibukota Jakarta 12730",Unknown,(021) 22717066,"4,3",Unknown,"Kamis,08.00 hingga 17.00",106.8162016,-6.2658417,https://www.google.com/maps/place/Sophie+Authentique/data=!4m7!3m6!1s0x2e69f229c7e963d5:0xa50418b3ffb0b830!8m2!3d-6.2658417!4d106.8162016!16s%2Fg%2F11fkn11k70!19sChIJ1WPpxynyaS4RMLiw_7MYBKU?authuser=0&hl=id&rclk=1
Warkop Kemang Timur,Kedai Kopi,"Jl. Kemang Timur No.69E 7, RT.7/RW.3, Bangka, Kec. Mampang Prpt., Kota Jakarta Selatan, Daerah Khusus Ibukota Jakarta 12730",Unknown,0819-5893-2760,"4,6",Unknown,"Kamis,Buka 24 jam",106.8239277,-6.2666496,https://www.google.com/maps/place/Warkop+Kemang+Timur/data=!4m7!3m6!1s0x2e69f3afc07b7b49:0xcde3ad61cbf3a253!8m2!3d-6.2666496!4d106.8239277!16s%2Fg%2F11r3lwkt15!19sChIJSXt7wK_zaS4RU6Lzy2Gt480?authuser=0&hl=id&rclk=1
Koi Kemang,Restoran,"Jl. Kemang Raya No.72, RT.7/RW.2, Bangka, Kec. Mampang Prpt., Kota Jakarta Selatan, Daerah Khusus Ibukota Jakarta 12730",Unknown,0811-8100-026,"4,5",Unknown,Unknown,106.8155431,-6.2671916,https://www.google.com/maps/place/Koi+Kemang/data=!4m7!3m6!1s0x2e69f180500f7d31:0x5a76b1a8aee7fefb!8m2!3d-6.2671916!4d106.8155431!16s%2Fg%2F1vqzfnmz!19sChIJMX0PUIDxaS4R-_7nrqixdlo?authuser=0&hl=id&rclk=1
Lawson Kemang Raya,Minimarket,"Jl. Kemang I No.6A 11, RT.11/RW.1, Bangka, Kec. Mampang Prpt., Kota Jakarta Selatan, Daerah Khusus Ibukota Jakarta 12730",Unknown,0812-9890-4632,"4,5",Unknown,"Kamis,07.00 hingga 23.59",106.8125278,-6.255849,https://www.google.com/maps/place/Lawson+Kemang+Raya/data=!4m7!3m6!1s0x2e69f1c1db929761:0xdc0c9d01da2a336c!8m2!3d-6.255849!4d106.8125278!16s%2Fg%2F11j4dyv204!19sChIJYZeS28HxaS4RbDMq2gGdDNw?authuser=0&hl=id&rclk=1
Ruma Coffeatery Bangka,Kedai Kopi,"104 Bangka Compound, Jl. Bangka Raya No.104, RT.1/RW.12, Pela Mampang, Mampang Prapatan, South Jakarta City, Jakarta 12730",Unknown,Unknown,"4,5",Unknown,"Kamis,07.00 hingga 22.00",106.814597,-6.2513563,https://www.google.com/maps/place/Ruma+Coffeatery+Bangka/data=!4m7!3m6!1s0x2e69f1d57824955b:0xca230f5efb1b976a!8m2!3d-6.2513563!4d106.814597!16s%2Fg%2F11r843q80t!19sChIJW5UkeNXxaS4Rapcb-14PI8o?authuser=0&hl=id&rclk=1
Piacere Del Caffè Kemang,Kedai Kopi,"Johnny's Car Wash Kemang, Jl. Pelita No.5, RW.7, Cipete Utara, Kec. Kby. Baru, Kota Jakarta Selatan, Daerah Khusus Ibukota Jakarta 12150",Unknown,0822-4633-8803,"5,0",Unknown,"Kamis,09.00 hingga 20.00",106.8125931,-6.2667917,https://www.google.com/maps/place/Piacere+Del+Caff%C3%A8+Kemang/data=!4m7!3m6!1s0x2e69f118a9bf0c8b:0x151a79b3684fe196!8m2!3d-6.2667917!4d106.8125931!16s%2Fg%2F11strdb03q!19sChIJiwy_qRjxaS4RluFPaLN5GhU?authuser=0&hl=id&rclk=1
Waroeng Aceh Kemang - PASAR MINGGU,Kedai Kopi,"Jl. Raya Pasar Minggu No.11, RT.1/RW.3, Pejaten Timur, Ps. Minggu, Kota Jakarta Selatan, Daerah Khusus Ibukota Jakarta 12510",Unknown,0852-1734-5105,"4,5",Unknown,"Kamis,15.00 hingga 00.00",106.8464908,-6.2696958,https://www.google.com/maps/place/Waroeng+Aceh+Kemang+-+PASAR+MINGGU/data=!4m7!3m6!1s0x2e69f38f4b2a2507:0xa0e19bd6b5d51402!8m2!3d-6.2696958!4d106.8464908!16s%2Fg%2F11t6g1gc87!19sChIJByUqS4_zaS4RAhTVtdab4aA?authuser=0&hl=id&rclk=1
Le Victoria Artisan Coffee and Roastery - Kemang,Kedai Kopi,"Jl. Kemang Raya No.13, RT.13/RW.1, Bangka, Kec. Mampang Prpt., Kota Jakarta Selatan, Daerah Khusus Ibukota Jakarta 12730",Unknown,0821-1758-4166,Unknown,Unknown,"Kamis,12.00 hingga 21.00",106.8121673,-6.2552893,https://www.google.com/maps/place/Le+Victoria+Artisan+Coffee+and+Roastery+-+Kemang/data=!4m7!3m6!1s0x2e69f17b8477f95b:0x44fa006bfbc4aba8!8m2!3d-6.2552893!4d106.8121673!16s%2Fg%2F11n54mfgm1!19sChIJW_l3hHvxaS4RqKvE-2sA-kQ?authuser=0&hl=id&rclk=1
Mandira's Garden,Restoran Makanan Sehat,"Jl. Kemang Timur No.89B 1, RT.1/RW.3, Bangka, Kec. Mampang Prpt., Kota Jakarta Selatan, Daerah Khusus Ibukota Jakarta 12730",Unknown,(021) 22715335,"4,3",Unknown,Unknown,106.8208422,-6.2732844,https://www.google.com/maps/place/Mandira%27s+Garden/data=!4m7!3m6!1s0x2e69f22a246f1beb:0x8ca6a391c7030f5b!8m2!3d-6.2732844!4d106.8208422!16s%2Fg%2F11bwh85kld!19sChIJ6xtvJCryaS4RWw8Dx5Gjpow?authuser=0&hl=id&rclk=1
Gordi HQ,Kafe,"6, Jl. Jeruk Purut Dalam No.mor 25, RT.6/RW.3, Cilandak Tim., Ps. Minggu, Kota Jakarta Selatan, Daerah Khusus Ibukota Jakarta 12560",Unknown,(021) 22785171,"4,6",Unknown,"Kamis,07.30 hingga 21.00",106.8117769,-6.284245,https://www.google.com/maps/place/Gordi+HQ/data=!4m7!3m6!1s0x2e69f1f6aaaaf82b:0x63c4be8f258156e3!8m2!3d-6.284245!4d106.8117769!16s%2Fg%2F11c2q2qq43!19sChIJK_iqqvbxaS4R41aBJY--xGM?authuser=0&hl=id&rclk=1
Warung Venue (Kemang),Kedai Kopi,"raya, Jl. Kemang Sel. No.125 1, RT.1/RW.2, Bangka, Kec. Mampang Prpt., Kota Jakarta Selatan, Daerah Khusus Ibukota Jakarta 12730",Unknown,0818-0808-4225,"4,4",Unknown,"Kamis,Buka 24 jam",106.815838,-6.272839,https://www.google.com/maps/place/Warung+Venue+%28Kemang%29/data=!4m7!3m6!1s0x2e69f1a61f0e7337:0x1cabf77c6063ea2c!8m2!3d-6.272839!4d106.815838!16s%2Fg%2F11f9gyc1n5!19sChIJN3MOH6bxaS4RLOpjYHz3qxw?authuser=0&hl=id&rclk=1
Starbucks Coffee Colony Kemang,Kafe,"Jl. Kemang Raya No.6A 14, RT.14/RW.1, Bangka, Kec. Mampang Prpt., Kota Jakarta Selatan, Daerah Khusus Ibukota Jakarta 12730",Unknown,Unknown,"4,4",Unknown,"Kamis,06.30 hingga 22.00",106.8104969,-6.2554289,https://www.google.com/maps/place/Starbucks+Coffee+Colony+Kemang/data=!4m7!3m6!1s0x2e69f1ea5f521f59:0x67dea2762e7d773f!8m2!3d-6.2554289!4d106.8104969!16s%2Fg%2F11j65qght8!19sChIJWR9SX-rxaS4RP3d9Lnai3mc?authuser=0&hl=id&rclk=1
POINT CAFFE,Kedai Kopi,"Jl. Kemang Raya No.25, RT.11/RW.5, Bangka, Kec. Mampang Prpt., Kota Jakarta Selatan, Daerah Khusus Ibukota Jakarta 12730",Unknown,(021) 1500280,"4,5",Unknown,Unknown,106.8153242,-6.2603197,https://www.google.com/maps/place/POINT+CAFFE/data=!4m7!3m6!1s0x2e69f185047e31a7:0xaa1d02fb0b525575!8m2!3d-6.2603197!4d106.8153242!16s%2Fg%2F11gn1vp0m0!19sChIJpzF-BIXxaS4RdVVSC_sCHao?authuser=0&hl=id&rclk=1
Kekini Udon - Kemang,Restoran Udon,"Jl. Kemang Utara X No.46, RT.1/RW.5, Duren Tiga, Kec. Pancoran, Kota Jakarta Selatan, Daerah Khusus Ibukota Jakarta 12760",Unknown,0851-5650-4877,"4,6",Unknown,"Kamis,10.00 hingga 21.00",106.8259383,-6.2544892,https://www.google.com/maps/place/Kekini+Udon+-+Kemang/data=!4m7!3m6!1s0x2e69f3e162bbc637:0x187578c3a1a07785!8m2!3d-6.2544892!4d106.8259383!16s%2Fg%2F11s5gqhh91!19sChIJN8a7YuHzaS4RhXegocN4dRg?authuser=0&hl=id&rclk=1
NEW MYS-BAR COFFEE KEMANG,Kedai Kopi,"Jl. Kemang Timur No.27a, RT.8/RW.4, Bangka, Kec. Mampang Prpt., Kota Jakarta Selatan, Daerah Khusus Ibukota Jakarta 12730",Unknown,Unknown,"5,0",Unknown,"Kamis,09.00 hingga 01.00",106.8233307,-6.2613524,https://www.google.com/maps/place/NEW+MYS-BAR+COFFEE+KEMANG/data=!4m7!3m6!1s0x2e69f30003b4e905:0x22c2aa64ef87a658!8m2!3d-6.2613524!4d106.8233307!16s%2Fg%2F11yhfmglpd!19sChIJBem0AwDzaS4RWKaH72SqwiI?authuser=0&hl=id&rclk=1
Thirty Three By Mirasari Restaurant,Restoran Indonesia,"Jl. Kemang Utara B No.33e, RT.3/RW.1, Bangka, Kec. Mampang Prpt., Kota Jakarta Selatan, Daerah Khusus Ibukota Jakarta 12730",Unknown,(021) 71793777,"4,5",Unknown,"Kamis,11.00 hingga 22.00",106.8206179,-6.2573589,https://www.google.com/maps/place/Thirty+Three+By+Mirasari+Restaurant/data=!4m7!3m6!1s0x2e69f3d5241c8aef:0xccbe6432d5ae138e!8m2!3d-6.2573589!4d106.8206179!16s%2Fg%2F1tf62lp9!19sChIJ74ocJNXzaS4RjhOu1TJkvsw?authuser=0&hl=id&rclk=1
Waroeng Aceh Kemang - ANTASARI,Kedai Kopi,"Jl. Pangeran Antasari, RT.1/RW.11, Cipete Utara, Kec. Kby. Baru, Kota Jakarta Selatan, Daerah Khusus Ibukota Jakarta 12150",Unknown,0852-1734-5105,"4,5",Unknown,"Kamis,09.00 hingga 03.00",106.8079827,-6.2612044,https://www.google.com/maps/place/Waroeng+Aceh+Kemang+-+ANTASARI/data=!4m7!3m6!1s0x2e69f1915610b3c5:0xb44c42a6a984dcec!8m2!3d-6.2612044!4d106.8079827!16s%2Fg%2F11ft54zqvv!19sChIJxbMQVpHxaS4R7NyEqaZCTLQ?authuser=0&hl=id&rclk=1
Starbucks Reserve,Kafe,"Jl. Pangeran Antasari Jl. Kemang Raya No.36 5, RT.13/RW.5, Bangka, Kec. Mampang Prpt., Kota Jakarta Selatan, Daerah Khusus Ibukota Jakarta 12150",Unknown,0812-8719-5631,"4,1",Unknown,"Kamis,07.00 hingga 22.00",106.8124288,-6.2613796,https://www.google.com/maps/place/Starbucks+Reserve/data=!4m7!3m6!1s0x2e69f1772bca801b:0x12800b7170d028cc!8m2!3d-6.2613796!4d106.8124288!16s%2Fg%2F11fn7jz758!19sChIJG4DKK3fxaS4RzCjQcHELgBI?authuser=0&hl=id&rclk=1
Kopi Semantan Kemang,Kedai Kopi,"13 Jalan Bangka Raya No.17, Jl. Kemang Raya No.31, RT.6/RW.1, Bangka, Kec. Mampang Prpt., Kota Jakarta Selatan, Daerah Khusus Ibukota Jakarta 12730",Unknown,Unknown,"5,0",Unknown,"Kamis,15.00 hingga 00.00",106.814099,-6.2552709,https://www.google.com/maps/place/Kopi+Semantan+Kemang/data=!4m7!3m6!1s0x2e69f134ebc1803d:0xeacecfd2d5f8b45e!8m2!3d-6.2552709!4d106.814099!16s%2Fg%2F11kj1g8x50!19sChIJPYDB6zTxaS4RXrT41dLPzuo?authuser=0&hl=id&rclk=1
Guns coffee kemang,Kedai Kopi,"Jl. Bangka V No.16 10, RT.10/RW.3, Pela Mampang, Kec. Mampang Prpt., Kota Jakarta Selatan, Daerah Khusus Ibukota Jakarta 12720",Unknown,0821-8080-8140,"5,0",10,"Kamis,Buka 24 jam",106.8168537,-6.2480337,https://www.google.com/maps/place/Guns+coffee+kemang/data=!4m7!3m6!1s0x2e69f1dddf8cf47b:0x3f7ea0dd7eb2caae!8m2!3d-6.2480337!4d106.8168537!16s%2Fg%2F11p77fpv6t!19sChIJe_SM393xaS4Rrsqyft2gfj8?authuser=0&hl=id&rclk=1
Rama kemang,Kedai Kopi,"Jl. Kemang Sel. raya No.101 a, RT.1/RW.2, Bangka, Kec. Mampang Prpt., Kota Jakarta Selatan, Daerah Khusus Ibukota Jakarta 12730",Unknown,Unknown,"5,0",Unknown,Unknown,106.817236,-6.2731459,https://www.google.com/maps/place/Rama+kemang/data=!4m7!3m6!1s0x2e69f1abde8d0463:0x8754e365f0f87e0d!8m2!3d-6.2731459!4d106.817236!16s%2Fg%2F11s5k4cjj0!19sChIJYwSN3qvxaS4RDX748GXjVIc?authuser=0&hl=id&rclk=1
kokeichic kemang,Restoran,"4, Jl. Kemang Timur No.69e, RT.4/RW.3, Bangka, Kec. Mampang Prpt., Kota Jakarta Selatan, Daerah Khusus Ibukota Jakarta 12730",Unknown,0878-6550-3993,"5,0",Unknown,"Kamis,11.00 hingga 21.00",106.8237557,-6.2701393,https://www.google.com/maps/place/kokeichic+kemang/data=!4m7!3m6!1s0x2e69f30ce7e7433d:0x98d63354b757ab67!8m2!3d-6.2701393!4d106.8237557!16s%2Fg%2F11ppssc059!19sChIJPUPn5wzzaS4RZ6tXt1Qz1pg?authuser=0&hl=id&rclk=1
Smartfolks Coffee Kemang,Kedai Kopi,"Jl. Kemang Raya No. 79, Jl. Kemang Raya No.76, RT.13/RW.2, Bangka, Kec. Mampang Prpt., Kota Jakarta Selatan, Daerah Khusus Ibukota Jakarta 12730",Unknown,0858-2203-5861,"5,0",5,"Kamis,11.00 hingga 00.00",106.8157637,-6.2687577,https://www.google.com/maps/place/Smartfolks+Coffee+Kemang/data=!4m7!3m6!1s0x2e69f1f6b1e002ed:0xc9eff19b9277099d!8m2!3d-6.2687577!4d106.8157637!16s%2Fg%2F11r4v7b9dw!19sChIJ7QLgsfbxaS4RnQl3kpvx78k?authuser=0&hl=id&rclk=1
Dudung Maman Kopi,Kedai Kopi,"Jl. H. Nudin No.70, RT.5/RW.3, Lb. Bulus, Kec. Cilandak, Kota Jakarta Selatan, Daerah Khusus Ibukota Jakarta 12440",Unknown,0878-8512-8756,"4,7",Unknown,"Kamis,08.00 hingga 23.00",106.7822378,-6.3092997,https://www.google.com/maps/place/Dudung+Maman+Kopi/data=!4m7!3m6!1s0x2e69f3c2cc3789c3:0xeaf69c0d64f63d5b!8m2!3d-6.3092997!4d106.7822378!16s%2Fg%2F11s9lxljzz!19sChIJw4k3zMLzaS4RWz32ZA2c9uo?authuser=0&hl=id&rclk=1
Vows Coffee at The Root Salads @ Como Park Kemang,Kedai Kopi,"Jl. Kemang Timur No.998 1, RT.1/RW.3, Bangka, Kec. Mampang Prpt., Kota Jakarta Selatan, Daerah Khusus Ibukota Jakarta 12730",Unknown,0819-9901-2511,"4,0",Unknown,"Kamis,10.00 hingga 21.00",106.8212156,-6.2725076,https://www.google.com/maps/place/Vows+Coffee+at+The+Root+Salads+@+Como+Park+Kemang/data=!4m7!3m6!1s0x2e69f3e1a587c093:0xf87de84cee4c2a54!8m2!3d-6.2725076!4d106.8212156!16s%2Fg%2F11p6p5pb9g!19sChIJk8CHpeHzaS4RVCpM7kzoffg?authuser=0&hl=id&rclk=1
"Kemang timur raya no,32c",Kedai Kopi,"Jl. Kemang Timur No.5 32C, RT.6/RW.4, Bangka, Mampang Prapatan, South Jakarta City, Jakarta 12730",Unknown,Unknown,"4,9",Unknown,Unknown,106.823287,-6.2591863,"https://www.google.com/maps/place/Kemang+timur+raya+no,32c/data=!4m7!3m6!1s0x2e69f3294d0fa7fb:0x420c237557cde35c!8m2!3d-6.2591863!4d106.823287!16s%2Fg%2F11rqckgktr!19sChIJ-6cPTSnzaS4RXOPNV3UjDEI?authuser=0&hl=id&rclk=1"
#ndbgsp Kemang,Kedai Kopi,"Jl. Kemang Utara B No.5c 6, RT.6/RW.1, Bangka, Kec. Mampang Prpt., Kota Jakarta Selatan, Daerah Khusus Ibukota Jakarta 12730",Unknown,Unknown,"5,0",Unknown,"Kamis,09.00 hingga 21.00",106.8164133,-6.2573992,https://www.google.com/maps/place/%23ndbgsp+Kemang/data=!4m7!3m6!1s0x2e69f155e7f194df:0x4e68eebc7722926d!8m2!3d-6.2573992!4d106.8164133!16s%2Fg%2F11gns7s7dr!19sChIJ35Tx51XxaS4RbZIid7zuaE4?authuser=0&hl=id&rclk=1
J.CO Kemang,Toko Donat,"Plaza Adorama, Jl. Kemang Raya No.17, RT.6/RW.1, Bangka, Kec. Mampang Prpt., Kota Jakarta Selatan, Daerah Khusus Ibukota Jakarta 12730",Unknown,(021) 7191302,"4,5",Unknown,"Kamis,08.00 hingga 22.00",106.8153,-6.2585816,https://www.google.com/maps/place/J.CO+Kemang/data=!4m7!3m6!1s0x2e69f18029fa50ed:0x7a4c257316ddc700!8m2!3d-6.2585816!4d106.8153!16s%2Fg%2F1pp2x90qh!19sChIJ7VD6KYDxaS4RAMfdFnMlTHo?authuser=0&hl=id&rclk=1
COMO Park,Taman,"Jl. Kemang Timur No.15 998, RT.1/RW.3, Bangka, Kec. Mampang Prpt., Kota Jakarta Selatan, Daerah Khusus Ibukota Jakarta 12730",Unknown,(021) 7197308,"4,6",Unknown,"Kamis,08.00 hingga 20.00",106.8212128,-6.2724514,https://www.google.com/maps/place/COMO+Park/data=!4m7!3m6!1s0x2e69f226dc51215d:0xcef2c5bfa5bafe0e!8m2!3d-6.2724514!4d106.8212128!16s%2Fg%2F1thknthp!19sChIJXSFR3CbyaS4RDv66pb_F8s4?authuser=0&hl=id&rclk=1
ANAK KEMANG CAFE,Restoran,"Jl. Taman Kemang 1 No.6, RT.14/RW.1, Bangka, Kec. Mampang Prpt., Kota Jakarta Selatan, Daerah Khusus Ibukota Jakarta 12730",Unknown,0822-6155-5578,"4,1",Unknown,"Kamis,18.00 hingga 04.00",106.8099923,-6.2558152,https://www.google.com/maps/place/ANAK+KEMANG+CAFE/data=!4m7!3m6!1s0x2e69f1f540a558d3:0xac6fb9a937d781d7!8m2!3d-6.2558152!4d106.8099923!16s%2Fg%2F11sv2ks2gy!19sChIJ01ilQPXxaS4R14HXN6m5b6w?authuser=0&hl=id&rclk=1
Jl. Kemang raya,Kedai Kopi,"PRH8+H6J, Jl. Kemang Raya, RT.2/RW.2, Bangka, Kec. Mampang Prpt., Kota Jakarta Selatan, Daerah Khusus Ibukota Jakarta 12730",Unknown,Unknown,"5,0",Unknown,Unknown,106.8155217,-6.2710425,https://www.google.com/maps/place/Jl.+Kemang+raya/data=!4m7!3m6!1s0x2e69f1598d2cc311:0x30d24dfd6fc95520!8m2!3d-6.2710425!4d106.8155217!16s%2Fg%2F11vcvcr424!19sChIJEcMsjVnxaS4RIFXJb_1N0jA?authuser=0&hl=id&rclk=1
Roti Romi Kemang,Toko Roti,"Jl. Kemang Raya No.23, RT.6/RW.1, Bangka, Kec. Mampang Prpt., Kota Jakarta Selatan, Daerah Khusus Ibukota Jakarta 12730",Unknown,0812-8118-7564,"4,6",Unknown,Unknown,106.8155719,-6.259388,https://www.google.com/maps/place/Roti+Romi+Kemang/data=!4m7!3m6!1s0x2e69f1850e5c6733:0x14bdba6ad3b51cf6!8m2!3d-6.259388!4d106.8155719!16s%2Fg%2F11s54k4kt7!19sChIJM2dcDoXxaS4R9hy102q6vRQ?authuser=0&hl=id&rclk=1
Coffee at Nowhere,Kedai Kopi,"Jl. Tebet Barat Dalam II No.10, RT.8/RW.2, Tebet Bar., Kec. Tebet, Kota Jakarta Selatan, Daerah Khusus Ibukota Jakarta 12810",Unknown,0858-8112-2004,"4,6",Unknown,"Kamis,08.00 hingga 00.00",106.847272,-6.2350077,https://www.google.com/maps/place/Coffee+at+Nowhere/data=!4m7!3m6!1s0x2e69f159cb518563:0x400c0ff606e99063!8m2!3d-6.2350077!4d106.847272!16s%2Fg%2F11y99by3tx!19sChIJY4VRy1nxaS4RY5DpBvYPDEA?authuser=0&hl=id&rclk=1
Chief Coffee - Kemang,Kafe,"Jl. Kemang Raya No.27 D, RT.6/RW.1, Bangka, Kec. Mampang Prpt., Kota Jakarta Selatan, Daerah Khusus Ibukota Jakarta 12730",Unknown,0878-8040-7999,"4,6",Unknown,Unknown,106.8156522,-6.2600471,https://www.google.com/maps/place/Chief+Coffee+-+Kemang/data=!4m7!3m6!1s0x2e69f1804f26b883:0x6c30985c0a34370b!8m2!3d-6.2600471!4d106.8156522!16s%2Fg%2F11g8wd5vmf!19sChIJg7gmT4DxaS4RCzc0ClyYMGw?authuser=0&hl=id&rclk=1
"Bukan Ruang, Kemang",Kedai Kopi,"6, Jl. Kemang Raya No.29B, RT.6/RW.1, Bangka, Kec. Mampang Prpt., Kota Jakarta Selatan, Daerah Khusus Ibukota Jakarta 12730",Unknown,(021) 22720330,"4,6",Unknown,Unknown,106.8157422,-6.2603673,"https://www.google.com/maps/place/Bukan+Ruang,+Kemang/data=!4m7!3m6!1s0x2e69f1dd9ed2f9df:0x7cdd8ee6ff4f4ace!8m2!3d-6.2603673!4d106.8157422!16s%2Fg%2F11fjwzvj96!19sChIJ3_nSnt3xaS4RzkpP_-aO3Xw?authuser=0&hl=id&rclk=1"
Kopi Lima Detik Panglima Polim,Kedai Kopi,"Jl. Panglima Polim XII No.46, RT.1/RW.7, Melawai, Kec. Kby. Baru, Jakarta, Daerah Khusus Ibukota Jakarta 12160",Unknown,0813-1849-365,"4,6",Unknown,"Kamis,07.00 hingga 22.00",106.7978466,-6.2514929,https://www.google.com/maps/place/Kopi+Lima+Detik+Panglima+Polim/data=!4m7!3m6!1s0x2e69f17ab231c5ab:0x18fe33c2eb006280!8m2!3d-6.2514929!4d106.7978466!16s%2Fg%2F11gy2jgv67!19sChIJq8UxsnrxaS4RgGIA68Iz_hg?authuser=0&hl=id&rclk=1
Colony 6 Kemang,Pusat Perbelanjaan,"Jl. Kemang Raya No.6, RT.14/RW.1, Bangka, Kec. Mampang Prpt., Kota Jakarta Selatan, Daerah Khusus Ibukota Jakarta 12730",Unknown,(021) 29529959,"4,5",Unknown,"Kamis,10.00 hingga 22.00",106.8104033,-6.2554932,https://www.google.com/maps/place/Colony+6+Kemang/data=!4m7!3m6!1s0x2e69f179180dbe2b:0xbf21e1d71a993ccf!8m2!3d-6.2554932!4d106.8104033!16s%2Fg%2F1hm4xr7w7!19sChIJK74NGHnxaS4RzzyZGtfhIb8?authuser=0&hl=id&rclk=1
The Papilion,Pusat Perbelanjaan,"Jl. Kemang Raya No.45 AA, Bangka, Kec. Mampang Prpt., Kota Jakarta Selatan, Daerah Khusus Ibukota Jakarta 12730",Unknown,0818-374-545,"4,4",Unknown,"Kamis,08.00 hingga 21.00",106.8166608,-6.2644643,https://www.google.com/maps/place/The+Papilion/data=!4m7!3m6!1s0x2e69f180675aaaab:0x34cb8d35cb383f7c!8m2!3d-6.2644643!4d106.8166608!16s%2Fg%2F1wb31vmv!19sChIJq6paZ4DxaS4RfD84yzWNyzQ?authuser=0&hl=id&rclk=1
KOI The Lippo Mal Kemang Jakarta,Kafe,"Jl. Pangeran Antasari No.36, RT.1/RW.6, Cipete Utara, Kec. Kby. Baru, Kota Jakarta Selatan, Daerah Khusus Ibukota Jakarta 12150",Unknown,Unknown,"3,9",Unknown,"Kamis,10.00 hingga 22.00",106.8126282,-6.260775,https://www.google.com/maps/place/KOI+The+Lippo+Mal+Kemang+Jakarta/data=!4m7!3m6!1s0x2e69f1eba9a284ef:0xf82101847fe3f7fa!8m2!3d-6.260775!4d106.8126282!16s%2Fg%2F11fktz5knj!19sChIJ74SiqevxaS4R-vfjf4QBIfg?authuser=0&hl=id&rclk=1
Monochrome,Kedai Kopi,"1 No. Jalan Kemang Raya No. 75, RT.13/RW.1, Bangka, Jakarta Selatan, Kota Jakarta Selatan, Daerah Khusus Ibukota Jakarta 12730",Unknown,0811-8503-184,"4,5",Unknown,"Kamis,07.00 hingga 17.00",106.812314,-6.255416,https://www.google.com/maps/place/Monochrome/data=!4m7!3m6!1s0x2e69f17ed1f64949:0xb37fc2f1afabce2a!8m2!3d-6.255416!4d106.812314!16s%2Fg%2F11ckqrkrsj!19sChIJSUn20X7xaS4RKs6rr_HCf7M?authuser=0&hl=id&rclk=1
